[{"id":"379119","boro":"BROOKLYN","address_num":"245","address_street":"SULLIVAN PLACE","address_zip":"11225","lng":"-73.9527","lat":"40.6649","num":"827","a":"95","b":"462","c":"232","i":"0","officer":"STANLEY CROSSMAN","org":"MANISTANC CORP"},{"id":"218919","boro":"BROOKLYN","address_num":"153","address_street":"CHAUNCEY STREET","address_zip":"11233","lng":"-73.9292","lat":"40.6806","num":"629","a":"150","b":"354","c":"125","i":"0","officer":"ELI MAOR","org":"SPRINT EQUITIES (NY) INC"},{"id":"347176","boro":"BROOKLYN","address_num":"115","address_street":"OCEAN AVENUE","address_zip":"11225","lng":"-73.9623","lat":"40.6603","num":"545","a":"80","b":"279","c":"62","i":"1","officer":"ALFRED SAYEGH","org":"LINCOLN PROSPECT ASSOC"},{"id":"381230","boro":"BROOKLYN","address_num":"535","address_street":"THROOP AVENUE","address_zip":"11221","lng":"-73.9409","lat":"40.6838","num":"507","a":"97","b":"330","c":"80","i":"0","officer":"RAFAEL REIHANIAN","org":"GRAND 52 LLC"},{"id":"309250","boro":"BROOKLYN","address_num":"245","address_street":"HAWTHORNE STREET","address_zip":"11225","lng":"-73.952","lat":"40.658","num":"390","a":"59","b":"174","c":"56","i":"0","officer":"JAMES DIMITRIADES","org":"M & M HAWTHORNE REALTY, LLC"},{"id":"335029","boro":"BROOKLYN","address_num":"196","address_street":"MAC DOUGAL STREET","address_zip":"11233","lng":"-73.9128","lat":"40.6798","num":"358","a":"51","b":"192","c":"115","i":"0","officer":"DANIELLE KIESELHORST","org":"WELLS FARGO BANK,NA"},{"id":"289280","boro":"BROOKLYN","address_num":"864","address_street":"ELTON STREET","address_zip":"11208","lng":"-73.8783","lat":"40.662","num":"334","a":"6","b":"55","c":"102","i":"0","officer":"KRIS GOUNDEN","org":""},{"id":"377800","boro":"BROOKLYN","address_num":"2","address_street":"STODDARD PLACE","address_zip":"11225","lng":"-73.9562","lat":"40.6654","num":"330","a":"38","b":"114","c":"21","i":"1","officer":"YITZCHAK SHWARTZ","org":"250 REALTY ASSOCIATES INC"},{"id":"151985","boro":"BROOKLYN","address_num":"553","address_street":"46 STREET","address_zip":"11220","lng":"-74.0065","lat":"40.6467","num":"323","a":"36","b":"117","c":"39","i":"0","officer":"BARTON SCHWARTZ","org":"BART SCHWARTZ AS RECIEVER"},{"id":"199753","boro":"BROOKLYN","address_num":"2150","address_street":"BATH AVENUE","address_zip":"11214","lng":"-73.9981","lat":"40.5988","num":"317","a":"75","b":"205","c":"37","i":"0","officer":"ROCCO BARILLA","org":""},{"id":"323187","boro":"BROOKLYN","address_num":"84","address_street":"LAWRENCE AVENUE","address_zip":"11230","lng":"-73.9757","lat":"40.6294","num":"316","a":"25","b":"118","c":"14","i":"1","officer":"ROBERT IZSAK","org":"RIZARO LAWRENCE LLC"},{"id":"358433","boro":"BROOKLYN","address_num":"752","address_street":"PUTNAM AVENUE","address_zip":"11221","lng":"-73.9317","lat":"40.6859","num":"300","a":"22","b":"150","c":"128","i":"0","officer":"SALVATORE D'AVOLA","org":"NEIGHBORHOOD RESTORE HDFC"},{"id":"808406","boro":"BROOKLYN","address_num":"995","address_street":"GATES AVENUE","address_zip":"11221","lng":"-73.9257","lat":"40.6892","num":"292","a":"17","b":"225","c":"30","i":"0","officer":"NAFTALI FRANKEL","org":"DANIEL HALE WILLIAMS ASSOCIATES"},{"id":"183916","boro":"BROOKLYN","address_num":"2020","address_street":"ALBEMARLE ROAD","address_zip":"11226","lng":"-73.9596","lat":"40.647","num":"275","a":"29","b":"147","c":"22","i":"0","officer":"MOSHE PILLER","org":"2020 REALTY HOLDINGS LLC"},{"id":"349403","boro":"BROOKLYN","address_num":"1015","address_street":"PACIFIC STREET","address_zip":"11238","lng":"-73.9602","lat":"40.6796","num":"273","a":"28","b":"213","c":"32","i":"0","officer":"MURIEL CLARK","org":""},{"id":"309349","boro":"BROOKLYN","address_num":"45","address_street":"HAWTHORNE STREET","address_zip":"11225","lng":"-73.9585","lat":"40.6576","num":"272","a":"21","b":"140","c":"6","i":"1","officer":"MORRIS LIEBERMAN","org":"45-55 REALTY LLC"},{"id":"329974","boro":"BROOKLYN","address_num":"401","address_street":"MACON STREET","address_zip":"11233","lng":"-73.9358","lat":"40.6829","num":"267","a":"52","b":"175","c":"27","i":"0","officer":"ERVIN JOHNSON, JR","org":""},{"id":"383026","boro":"BROOKLYN","address_num":"1059","address_street":"UNION STREET","address_zip":"11225","lng":"-73.9579","lat":"40.6699","num":"265","a":"24","b":"149","c":"43","i":"1","officer":"AL ROSE","org":"1059 UNION ST LLC"},{"id":"359923","boro":"BROOKLYN","address_num":"207","address_street":"RALPH AVENUE","address_zip":"11233","lng":"-73.9223","lat":"40.6825","num":"263","a":"28","b":"140","c":"94","i":"1","officer":"MICHAEL WRIGHT","org":"ESTATE OF MARTHA WRIGHT"},{"id":"334598","boro":"BROOKLYN","address_num":"44","address_street":"MAC DONOUGH STREET","address_zip":"11216","lng":"-73.9445","lat":"40.6806","num":"257","a":"27","b":"115","c":"22","i":"0","officer":"MARK RUBIN","org":"J M DEVELOPMENT GROUP ASSOCIATES"},{"id":"217748","boro":"BROOKLYN","address_num":"1691","address_street":"CARROLL STREET","address_zip":"11213","lng":"-73.9297","lat":"40.6663","num":"256","a":"20","b":"160","c":"76","i":"0","officer":"SALLIE VINSON","org":""},{"id":"360443","boro":"BROOKLYN","address_num":"222","address_street":"MALCOLM X BOULEVARD","address_zip":"11221","lng":"-73.9298","lat":"40.6855","num":"255","a":"32","b":"152","c":"71","i":"0","officer":"ESTHER DARNLEY","org":""},{"id":"242324","boro":"BROOKLYN","address_num":"10","address_street":"WESTMINSTER ROAD","address_zip":"11218","lng":"-73.969","lat":"40.6489","num":"254","a":"13","b":"88","c":"64","i":"0","officer":"HARRY HOROWITZ, RECEIVER","org":"HARRY HOROWITZ, RECEIVER"},{"id":"354021","boro":"BROOKLYN","address_num":"1719","address_street":"PITKIN AVENUE","address_zip":"11212","lng":"-73.9097","lat":"40.6701","num":"250","a":"38","b":"174","c":"38","i":"0","officer":"Y SCHWARTZ","org":"ADAR B REALTY LLC"},{"id":"306891","boro":"BROOKLYN","address_num":"243","address_street":"HANCOCK STREET","address_zip":"11216","lng":"-73.9463","lat":"40.6832","num":"249","a":"11","b":"166","c":"15","i":"0","officer":"MARTHA KAMBER","org":"PROJECT TEEN AID HDFC"},{"id":"299620","boro":"BROOKLYN","address_num":"969","address_street":"GATES AVENUE","address_zip":"11221","lng":"-73.9261","lat":"40.6893","num":"248","a":"20","b":"154","c":"15","i":"0","officer":"NAFTALI FRANKEL","org":"DANIEL HALE WILLIAMS ASSOC"},{"id":"156599","boro":"BROOKLYN","address_num":"452","address_street":"53 STREET","address_zip":"11220","lng":"-74.0131","lat":"40.6438","num":"246","a":"25","b":"169","c":"24","i":"0","officer":"SHOOM RUBOSHLEIN","org":"452 53RD ST REATY CORP"},{"id":"151987","boro":"BROOKLYN","address_num":"557","address_street":"46 STREET","address_zip":"11220","lng":"-74.0064","lat":"40.6466","num":"243","a":"24","b":"84","c":"31","i":"0","officer":"BARTON SCHWARTZ","org":"BART SCHWARTZ AS RECEIVER"},{"id":"347775","boro":"BROOKLYN","address_num":"700","address_street":"OCEAN AVENUE","address_zip":"11226","lng":"-73.9606","lat":"40.6457","num":"241","a":"26","b":"84","c":"84","i":"0","officer":"DOUGLAS EISENBERG","org":"700 OCEAN, LLC"},{"id":"376447","boro":"BROOKLYN","address_num":"1460","address_street":"STERLING PLACE","address_zip":"11213","lng":"-73.9302","lat":"40.6712","num":"238","a":"17","b":"97","c":"33","i":"1","officer":"RUBIN DUKLER","org":"ZOHOV REALTY"},{"id":"270209","boro":"BROOKLYN","address_num":"325","address_street":"EAST 54 STREET","address_zip":"11203","lng":"-73.9261","lat":"40.6508","num":"235","a":"43","b":"143","c":"49","i":"0","officer":"MICHAEL JOSEPH","org":""},{"id":"151981","boro":"BROOKLYN","address_num":"545","address_street":"46 STREET","address_zip":"11220","lng":"-74.0066","lat":"40.6468","num":"234","a":"38","b":"83","c":"28","i":"0","officer":"BARTON SCHWARTZ","org":"BARTON SCHWARTZ AS RECEIVER"},{"id":"317673","boro":"BROOKLYN","address_num":"992","address_street":"JEFFERSON AVENUE","address_zip":"11221","lng":"-73.9181","lat":"40.6867","num":"233","a":"35","b":"106","c":"41","i":"0","officer":"SING WONG","org":""},{"id":"809564","boro":"BROOKLYN","address_num":"1566","address_street":"STERLING PLACE","address_zip":"11213","lng":"-73.9267","lat":"40.6712","num":"232","a":"11","b":"129","c":"29","i":"0","officer":"TROY STECVENS","org":"ST JOHNS ASSOCATION"},{"id":"333256","boro":"BROOKLYN","address_num":"82","address_street":"MARION STREET","address_zip":"11233","lng":"-73.9277","lat":"40.6796","num":"228","a":"36","b":"122","c":"42","i":"0","officer":"MOSES STRULOVITCH","org":"MARION RESIDENCE LLC"},{"id":"360482","boro":"BROOKLYN","address_num":"265","address_street":"MALCOLM X BOULEVARD","address_zip":"11233","lng":"-73.9289","lat":"40.6833","num":"224","a":"45","b":"152","c":"27","i":"0","officer":"LORRAINE COLON","org":"MISSION FIELD CHURCH INC"},{"id":"306724","boro":"BROOKLYN","address_num":"1346","address_street":"HANCOCK STREET","address_zip":"11237","lng":"-73.9087","lat":"40.6944","num":"221","a":"36","b":"125","c":"41","i":"0","officer":"","org":""},{"id":"366781","boro":"BROOKLYN","address_num":"224","address_street":"SCHAEFER STREET","address_zip":"11207","lng":"-73.9065","lat":"40.6906","num":"220","a":"22","b":"99","c":"58","i":"0","officer":"STEPHEN JOSEPH","org":"A & S TOWER CORP"},{"id":"309217","boro":"BROOKLYN","address_num":"175","address_street":"HAWTHORNE STREET","address_zip":"11225","lng":"-73.9547","lat":"40.6579","num":"216","a":"24","b":"173","c":"12","i":"0","officer":"ROBERT RAPHAEL","org":"JAHACA ACQUISITIONS, LLC & 3900 HARPER"},{"id":"303837","boro":"BROOKLYN","address_num":"1285","address_street":"GREENE AVENUE","address_zip":"11237","lng":"-73.92","lat":"40.6979","num":"216","a":"32","b":"150","c":"34","i":"0","officer":"SALVATORE D'AVOLA","org":"NEIGHBOR HOOD RESTORE HDFC"},{"id":"383109","boro":"BROOKLYN","address_num":"1246","address_street":"UNION STREET","address_zip":"11225","lng":"-73.9497","lat":"40.6686","num":"215","a":"68","b":"90","c":"57","i":"0","officer":"JOSEPH FISCHMAN","org":"SCHIFF NABCS JMF CORP"},{"id":"376484","boro":"BROOKLYN","address_num":"1550","address_street":"STERLING PLACE","address_zip":"11213","lng":"-73.927","lat":"40.671","num":"210","a":"12","b":"118","c":"30","i":"0","officer":"TROY STEVENS JR","org":"ST JOHN'S I ASSOCIATES"},{"id":"230424","boro":"BROOKLYN","address_num":"843","address_street":"DE KALB AVENUE","address_zip":"11221","lng":"-73.9425","lat":"40.6926","num":"208","a":"19","b":"113","c":"75","i":"1","officer":"BERNARD NIEDERMAN","org":"843 DEKALB MANAGEMENT LLC"},{"id":"273306","boro":"BROOKLYN","address_num":"130","address_street":"EAST 59 STREET","address_zip":"11203","lng":"-73.9219","lat":"40.651","num":"206","a":"28","b":"98","c":"50","i":"0","officer":"PATRICK JAMES","org":""},{"id":"337329","boro":"BROOKLYN","address_num":"179","address_street":"MILFORD STREET","address_zip":"11208","lng":"-73.8769","lat":"40.6752","num":"205","a":"28","b":"77","c":"31","i":"0","officer":"MICHAEL SLOCHOWSKY","org":"MILFORD STREET PROPERTIES LLC"},{"id":"353145","boro":"BROOKLYN","address_num":"518","address_street":"PENNSYLVANIA AVENUE","address_zip":"11207","lng":"-73.894","lat":"40.6646","num":"202","a":"7","b":"74","c":"13","i":"1","officer":"","org":"518 PENNSYLVANIA HDFC"},{"id":"222658","boro":"BROOKLYN","address_num":"338","address_street":"CLIFTON PLACE","address_zip":"11216","lng":"-73.9507","lat":"40.689","num":"201","a":"43","b":"91","c":"35","i":"1","officer":"CHRISTINA MOTTLEY","org":""},{"id":"205477","boro":"BROOKLYN","address_num":"1063","address_street":"BEDFORD AVENUE","address_zip":"11216","lng":"-73.9544","lat":"40.6875","num":"201","a":"20","b":"46","c":"69","i":"0","officer":"KELVIN CORBIN","org":"RIVER BED REALTY CORPORATION"},{"id":"297177","boro":"BROOKLYN","address_num":"1000","address_street":"FULTON STREET","address_zip":"11238","lng":"-73.9608","lat":"40.6819","num":"198","a":"67","b":"121","c":"8","i":"1","officer":"ALLAN CHAND","org":""},{"id":"208130","boro":"BROOKLYN","address_num":"1042","address_street":"BERGEN STREET","address_zip":"11216","lng":"-73.9517","lat":"40.6759","num":"190","a":"22","b":"110","c":"26","i":"0","officer":"LEAH GUTMAN","org":"BEDFORD BERGEN LLC"},{"id":"142830","boro":"BROOKLYN","address_num":"4219","address_street":"18 AVENUE","address_zip":"11218","lng":"-73.9756","lat":"40.6315","num":"189","a":"6","b":"60","c":"22","i":"0","officer":"ABE PULTMAN","org":"EAST COAST PROPERTY MANAGEMENT"},{"id":"287492","boro":"BROOKLYN","address_num":"1018","address_street":"EASTERN PARKWAY","address_zip":"11213","lng":"-73.9346","lat":"40.6685","num":"189","a":"18","b":"102","c":"33","i":"0","officer":"RUBIN DUKLER","org":"RIKUD REALTY INC."},{"id":"317003","boro":"BROOKLYN","address_num":"191","address_street":"JEFFERSON AVENUE","address_zip":"11216","lng":"-73.9499","lat":"40.6835","num":"186","a":"34","b":"130","c":"19","i":"0","officer":"MARK RUBIN","org":"JM DEVELOPMENT GROUP ASSOCIATES"},{"id":"356822","boro":"BROOKLYN","address_num":"1583","address_street":"PROSPECT PLACE","address_zip":"11233","lng":"-73.9241","lat":"40.6731","num":"185","a":"10","b":"83","c":"17","i":"0","officer":"NAFTALI FRANKEL","org":"PROSPECT PL ASSOCIATES"},{"id":"266747","boro":"BROOKLYN","address_num":"397","address_street":"EAST 49 STREET","address_zip":"11203","lng":"-73.9311","lat":"40.6522","num":"184","a":"26","b":"105","c":"44","i":"0","officer":"WENDY REDHEAD","org":"397 E 49 STREET REALTY ASSOC"},{"id":"357825","boro":"BROOKLYN","address_num":"1301","address_street":"PUTNAM AVENUE","address_zip":"11221","lng":"-73.9141","lat":"40.6932","num":"183","a":"20","b":"61","c":"14","i":"1","officer":"MATT KATZ","org":"1301 PUTMAN LLC"},{"id":"363824","boro":"BROOKLYN","address_num":"433","address_street":"ROGERS AVENUE","address_zip":"11225","lng":"-73.9533","lat":"40.6619","num":"182","a":"19","b":"51","c":"9","i":"1","officer":"YITZCHOK RAMBOD","org":"LEFFERTS-LINCOLN ESTATES LLC"},{"id":"208577","boro":"BROOKLYN","address_num":"1935","address_street":"BERGEN STREET","address_zip":"11233","lng":"-73.9171","lat":"40.6745","num":"181","a":"15","b":"55","c":"49","i":"0","officer":"GRAIG MAIDMAN","org":"THUMB BERGEN LLC"},{"id":"283817","boro":"BROOKLYN","address_num":"273","address_street":"EAST 95 STREET","address_zip":"11212","lng":"-73.9212","lat":"40.6599","num":"180","a":"14","b":"61","c":"47","i":"1","officer":"YEHUDA NELKENBAUM","org":""},{"id":"219081","boro":"BROOKLYN","address_num":"475","address_street":"CHAUNCEY STREET","address_zip":"11233","lng":"-73.9156","lat":"40.6822","num":"179","a":"52","b":"91","c":"36","i":"0","officer":"ROBERT RAPHAEL","org":"CHAUNCEY\/ST JOHNS,LLC + RSR RE,LLC"},{"id":"333363","boro":"BROOKLYN","address_num":"231","address_street":"MARTENSE STREET","address_zip":"11226","lng":"-73.9513","lat":"40.6519","num":"178","a":"13","b":"63","c":"101","i":"0","officer":"ANDERSON SIMON","org":""},{"id":"295526","boro":"BROOKLYN","address_num":"95","address_street":"FOUNTAIN AVENUE","address_zip":"11208","lng":"-73.8757","lat":"40.6779","num":"175","a":"18","b":"96","c":"24","i":"0","officer":"YECHIEL WEINBERGER","org":"FOUNTAIN 95 LLC"},{"id":"321334","boro":"BROOKLYN","address_num":"533","address_street":"KNICKERBOCKER AVENUE","address_zip":"11221","lng":"-73.9157","lat":"40.6976","num":"171","a":"56","b":"101","c":"13","i":"0","officer":"HARRY KLEIN","org":"THE KNICKERBOCKER TOWERS LLC"},{"id":"334920","boro":"BROOKLYN","address_num":"781","address_street":"MAC DONOUGH STREET","address_zip":"11233","lng":"-73.9152","lat":"40.6845","num":"171","a":"35","b":"40","c":"17","i":"0","officer":"TEWAN LOWE","org":""},{"id":"326593","boro":"BROOKLYN","address_num":"560","address_street":"LINCOLN PLACE","address_zip":"11238","lng":"-73.958","lat":"40.6714","num":"169","a":"19","b":"88","c":"56","i":"0","officer":"ELCORNO MARTIN","org":""},{"id":"307327","boro":"BROOKLYN","address_num":"700","address_street":"HANCOCK STREET","address_zip":"11233","lng":"-73.9274","lat":"40.6849","num":"166","a":"4","b":"45","c":"29","i":"1","officer":"JOSEPH FREUND","org":"700 HANCOCK, LLC"},{"id":"311287","boro":"BROOKLYN","address_num":"132","address_street":"HERKIMER STREET","address_zip":"11216","lng":"-73.949","lat":"40.6793","num":"165","a":"40","b":"54","c":"11","i":"0","officer":"GARY GERSHUNY","org":"NY AFFORDABLE HOUSING HERKIMER ASSOCIATE"},{"id":"326302","boro":"BROOKLYN","address_num":"1305","address_street":"LINCOLN PLACE","address_zip":"11213","lng":"-73.9333","lat":"40.6701","num":"163","a":"17","b":"90","c":"35","i":"0","officer":"ELCORNO MARTIN","org":""},{"id":"266026","boro":"BROOKLYN","address_num":"472","address_street":"EAST 48 STREET","address_zip":"11203","lng":"-73.9324","lat":"40.6502","num":"162","a":"14","b":"68","c":"65","i":"0","officer":"ABE PETERS","org":"UNITED LUBAVITCHER YESHIVOTH"},{"id":"307498","boro":"BROOKLYN","address_num":"898","address_street":"HANCOCK STREET","address_zip":"11233","lng":"-73.9194","lat":"40.6858","num":"162","a":"19","b":"109","c":"34","i":"0","officer":"WILLIAM BAZEMORE","org":""},{"id":"374044","boro":"BROOKLYN","address_num":"567","address_street":"ST JOHNS PLACE","address_zip":"11238","lng":"-73.9592","lat":"40.673","num":"161","a":"20","b":"64","c":"16","i":"0","officer":"GERARD TEMA","org":""},{"id":"220915","boro":"BROOKLYN","address_num":"3420","address_street":"CLARENDON ROAD","address_zip":"11203","lng":"-73.9442","lat":"40.6433","num":"160","a":"19","b":"74","c":"48","i":"0","officer":"MICHAEL NIAMONITAKIS","org":"MARINE EQUITIES CLARENDON LLC"},{"id":"230055","boro":"BROOKLYN","address_num":"1512","address_street":"DE KALB AVENUE","address_zip":"11237","lng":"-73.9209","lat":"40.7021","num":"158","a":"24","b":"75","c":"16","i":"0","officer":"MARK BERKOWITZ","org":"DUPONT USA LLC"},{"id":"287509","boro":"BROOKLYN","address_num":"1089","address_street":"EASTERN PARKWAY","address_zip":"11213","lng":"-73.9322","lat":"40.6693","num":"158","a":"25","b":"76","c":"17","i":"0","officer":"MARCOS REYES","org":"NY AFFORDABLE HSG EP & ASSOC"},{"id":"351916","boro":"BROOKLYN","address_num":"473","address_street":"PARK PLACE","address_zip":"11238","lng":"-73.962","lat":"40.6756","num":"157","a":"16","b":"27","c":"41","i":"1","officer":"YVONNE CASEY","org":""},{"id":"397016","boro":"BROOKLYN","address_num":"614","address_street":"WILSON AVENUE","address_zip":"11207","lng":"-73.9065","lat":"40.6894","num":"157","a":"25","b":"123","c":"8","i":"1","officer":"ROBERT JONES","org":""},{"id":"357674","boro":"BROOKLYN","address_num":"1072","address_street":"PUTNAM AVENUE","address_zip":"11221","lng":"-73.9192","lat":"40.6873","num":"157","a":"14","b":"92","c":"51","i":"0","officer":"JOHNNIE DREW","org":"1072 PUTNAM, LLC"},{"id":"397038","boro":"BROOKLYN","address_num":"636","address_street":"WILSON AVENUE","address_zip":"11207","lng":"-73.9055","lat":"40.689","num":"156","a":"22","b":"50","c":"54","i":"0","officer":"SAIFULLAH BHUIYA","org":"SB DEVELOPER AND MANAGMENT CORP"},{"id":"233322","boro":"BROOKLYN","address_num":"164","address_street":"DIKEMAN STREET","address_zip":"11231","lng":"-74.0151","lat":"40.6782","num":"154","a":"23","b":"75","c":"16","i":"0","officer":"JOSEPH MANNINO","org":"373 8TH ST REALTY"},{"id":"377547","boro":"BROOKLYN","address_num":"2828","address_street":"STILLWELL AVENUE","address_zip":"11224","lng":"-73.9822","lat":"40.5784","num":"154","a":"16","b":"89","c":"37","i":"0","officer":"GEORGE HAMBOUSSI","org":"2828 STILLWELL HOLDING CORP"},{"id":"353199","boro":"BROOKLYN","address_num":"653","address_street":"PENNSYLVANIA AVENUE","address_zip":"11207","lng":"-73.8926","lat":"40.6613","num":"153","a":"29","b":"95","c":"19","i":"1","officer":"HAROLD TURNER","org":""},{"id":"205681","boro":"BROOKLYN","address_num":"1459","address_street":"BEDFORD AVENUE","address_zip":"11216","lng":"-73.9537","lat":"40.6733","num":"153","a":"21","b":"90","c":"42","i":"0","officer":"FRANK BROWN JR","org":"1459 BEDFORD LLC"},{"id":"294186","boro":"BROOKLYN","address_num":"892","address_street":"FLUSHING AVENUE","address_zip":"11206","lng":"-73.9361","lat":"40.7021","num":"153","a":"5","b":"124","c":"16","i":"0","officer":"KIMBERLY SANCHEZ","org":"890 FLUSHING AVENUE HDFC"},{"id":"311591","boro":"BROOKLYN","address_num":"60","address_street":"HERKIMER STREET","address_zip":"11216","lng":"-73.9514","lat":"40.6795","num":"152","a":"15","b":"79","c":"57","i":"1","officer":"VICTORIA GOLDBERG","org":""},{"id":"333841","boro":"BROOKLYN","address_num":"1515","address_street":"MC DONALD AVENUE","address_zip":"11230","lng":"-73.974","lat":"40.6159","num":"152","a":"26","b":"100","c":"23","i":"0","officer":"EDWARD SWEENEY","org":""},{"id":"283410","boro":"BROOKLYN","address_num":"83","address_street":"EAST 94 STREET","address_zip":"11212","lng":"-73.9263","lat":"40.6633","num":"152","a":"43","b":"78","c":"20","i":"0","officer":"BARRY FARKAS","org":"EAST 94TH STREET REALTY"},{"id":"373585","boro":"BROOKLYN","address_num":"1148","address_street":"ST JOHNS PLACE","address_zip":"11213","lng":"-73.9403","lat":"40.6708","num":"152","a":"23","b":"86","c":"18","i":"0","officer":"TONY ST-FESTIN","org":"1148 ST.JOHN'S REALTY LLC"},{"id":"322207","boro":"BROOKLYN","address_num":"472","address_street":"LAFAYETTE AVENUE","address_zip":"11205","lng":"-73.9562","lat":"40.6891","num":"152","a":"25","b":"86","c":"41","i":"0","officer":"JOHN BOSWELL","org":""},{"id":"314453","boro":"BROOKLYN","address_num":"19","address_street":"HUBBARD PLACE","address_zip":"11210","lng":"-73.9382","lat":"40.6248","num":"150","a":"18","b":"71","c":"31","i":"0","officer":"DOMENICO PRIMO","org":""},{"id":"298513","boro":"BROOKLYN","address_num":"931","address_street":"FULTON STREET","address_zip":"11238","lng":"-73.966","lat":"40.6835","num":"150","a":"17","b":"92","c":"38","i":"0","officer":"MABADEJE DEMU","org":""},{"id":"298088","boro":"BROOKLYN","address_num":"3084","address_street":"FULTON STREET","address_zip":"11208","lng":"-73.8812","lat":"40.6808","num":"149","a":"31","b":"78","c":"40","i":"0","officer":"SHAZAM HUSAIN","org":""},{"id":"320849","boro":"BROOKLYN","address_num":"113","address_street":"KINGSTON AVENUE","address_zip":"11213","lng":"-73.9414","lat":"40.676","num":"147","a":"43","b":"77","c":"27","i":"0","officer":"OSWALD LLOYD","org":"BALLOYD REALTY CORP"},{"id":"360382","boro":"BROOKLYN","address_num":"112","address_street":"MALCOLM X BOULEVARD","address_zip":"11221","lng":"-73.9307","lat":"40.6898","num":"146","a":"14","b":"97","c":"35","i":"0","officer":"WINSTON EDWARDS","org":""},{"id":"279402","boro":"BROOKLYN","address_num":"105","address_street":"EAST 86 STREET","address_zip":"11236","lng":"-73.9196","lat":"40.6483","num":"146","a":"20","b":"94","c":"18","i":"0","officer":"JEFFERY BRAUN","org":"DITMAS GARDENS  LLC"},{"id":"349523","boro":"BROOKLYN","address_num":"1329","address_street":"PACIFIC STREET","address_zip":"11216","lng":"-73.9483","lat":"40.6778","num":"145","a":"22","b":"93","c":"30","i":"0","officer":"LUCKY CONTI","org":"1329 PACIFIC STREET REALTY LLC"},{"id":"230868","boro":"BROOKLYN","address_num":"1398","address_street":"DEAN STREET","address_zip":"11216","lng":"-73.9423","lat":"40.6762","num":"145","a":"20","b":"92","c":"19","i":"0","officer":"ROBERT BREMMER","org":"ZT 1400 DEAN LLC"},{"id":"245748","boro":"BROOKLYN","address_num":"625","address_street":"MARLBOROUGH ROAD","address_zip":"11226","lng":"-73.963","lat":"40.6347","num":"144","a":"13","b":"37","c":"65","i":"0","officer":"JEFFREY BRAUN","org":"MARLBOROUGH LLC"},{"id":"361046","boro":"BROOKLYN","address_num":"421","address_street":"REMSEN AVENUE","address_zip":"11212","lng":"-73.9227","lat":"40.6556","num":"144","a":"7","b":"72","c":"16","i":"0","officer":"UZY STEIN","org":"421 REMSEN LLC"},{"id":"130682","boro":"BROOKLYN","address_num":"5211","address_street":"5 AVENUE","address_zip":"11220","lng":"-74.0116","lat":"40.6435","num":"143","a":"6","b":"72","c":"18","i":"0","officer":"VINCENZO SALVO","org":""},{"id":"300668","boro":"BROOKLYN","address_num":"1049","address_street":"GLENMORE AVENUE","address_zip":"11208","lng":"-73.8712","lat":"40.677","num":"143","a":"12","b":"89","c":"33","i":"0","officer":"GERSHON EICHORN","org":"POSITIVE PLACE LLC"},{"id":"349520","boro":"BROOKLYN","address_num":"1326","address_street":"PACIFIC STREET","address_zip":"11216","lng":"-73.9465","lat":"40.6772","num":"142","a":"35","b":"83","c":"24","i":"0","officer":"NELIDA LORENCE","org":""},{"id":"287813","boro":"BROOKLYN","address_num":"374","address_street":"EASTERN PARKWAY","address_zip":"11225","lng":"-73.9564","lat":"40.6698","num":"142","a":"10","b":"44","c":"64","i":"0","officer":"CHARLES MARCHISOTTO","org":"374 E.P. CONMAR OWNERS CORP"},{"id":"308795","boro":"BROOKLYN","address_num":"865","address_street":"HART STREET","address_zip":"11237","lng":"-73.9223","lat":"40.7027","num":"142","a":"14","b":"71","c":"20","i":"1","officer":"SONU GUPTA","org":""},{"id":"381601","boro":"BROOKLYN","address_num":"300","address_street":"TOMPKINS AVENUE","address_zip":"11216","lng":"-73.9451","lat":"40.6877","num":"142","a":"24","b":"69","c":"49","i":"0","officer":"DEBORAH FFRENCH","org":""},{"id":"352600","boro":"BROOKLYN","address_num":"152","address_street":"PATCHEN AVENUE","address_zip":"11221","lng":"-73.927","lat":"40.6861","num":"141","a":"11","b":"54","c":"16","i":"1","officer":"DAVID MANESH","org":"MACON STREET INC"},{"id":"209744","boro":"BROOKLYN","address_num":"1517","address_street":"BEVERLY ROAD","address_zip":"11226","lng":"-73.9649","lat":"40.6443","num":"141","a":"15","b":"78","c":"34","i":"0","officer":"AURO CYNAMON","org":"236 EAST 16TH ST. REALTY LLC"},{"id":"133020","boro":"BROOKLYN","address_num":"187","address_street":"7 AVENUE","address_zip":"11215","lng":"-73.9777","lat":"40.6711","num":"141","a":"60","b":"65","c":"16","i":"0","officer":"ALEX FRIEDMAN","org":"187 7TH AVENUE RESIDENCES, LLC"},{"id":"383508","boro":"BROOKLYN","address_num":"2037","address_street":"UNION STREET","address_zip":"11212","lng":"-73.9213","lat":"40.6665","num":"140","a":"19","b":"75","c":"41","i":"0","officer":"SEEPOPAUL JHODA","org":""},{"id":"321411","boro":"BROOKLYN","address_num":"727","address_street":"KNICKERBOCKER AVENUE","address_zip":"11221","lng":"-73.9097","lat":"40.6941","num":"140","a":"19","b":"83","c":"17","i":"0","officer":"ELAINE JONES","org":""},{"id":"373926","boro":"BROOKLYN","address_num":"217","address_street":"ST JOHNS PLACE","address_zip":"11217","lng":"-73.9725","lat":"40.6761","num":"139","a":"41","b":"87","c":"11","i":"0","officer":"MARK WEINBERGER","org":"217 ST JOHNS PLACE LLC"},{"id":"355141","boro":"BROOKLYN","address_num":"1131","address_street":"PRESIDENT STREET","address_zip":"11225","lng":"-73.9529","lat":"40.6685","num":"138","a":"14","b":"57","c":"7","i":"0","officer":"YITZCHOK RAMBOD","org":"EASTERN PRESIDENTIAL ESTATES LLC"},{"id":"230372","boro":"BROOKLYN","address_num":"751","address_street":"DE KALB AVENUE","address_zip":"11216","lng":"-73.9463","lat":"40.6922","num":"138","a":"26","b":"77","c":"35","i":"0","officer":"MAYER WALDMAN","org":"751 DEKALB REALTY LLC"},{"id":"284978","boro":"BROOKLYN","address_num":"296","address_street":"EAST 98 STREET","address_zip":"11212","lng":"-73.9183","lat":"40.6604","num":"138","a":"32","b":"73","c":"33","i":"0","officer":"CASTUS MCKENZIE","org":""},{"id":"364132","boro":"BROOKLYN","address_num":"141","address_street":"ROSS STREET","address_zip":"11211","lng":"-73.9616","lat":"40.7052","num":"138","a":"0","b":"104","c":"14","i":"0","officer":"SIMCHE WALDMAN","org":"UNITED MUNKALSER YESHIVOS"},{"id":"292843","boro":"BROOKLYN","address_num":"621","address_street":"FLATBUSH AVENUE","address_zip":"11225","lng":"-73.9602","lat":"40.6582","num":"137","a":"3","b":"118","c":"13","i":"0","officer":"ABE BETESH","org":"FENIMORE PLAZA LLC"},{"id":"336616","boro":"BROOKLYN","address_num":"679","address_street":"METROPOLITAN AVENUE","address_zip":"11211","lng":"-73.9465","lat":"40.7146","num":"137","a":"19","b":"65","c":"10","i":"0","officer":"MICHAEL CASTELL","org":"GRIFFIN BUILDING CORP"},{"id":"306579","boro":"BROOKLYN","address_num":"1141","address_street":"HANCOCK STREET","address_zip":"11221","lng":"-73.9132","lat":"40.6905","num":"137","a":"33","b":"60","c":"44","i":"0","officer":"PATRICIA PAYNE","org":""},{"id":"349453","boro":"BROOKLYN","address_num":"1162","address_street":"PACIFIC STREET","address_zip":"11216","lng":"-73.9537","lat":"40.6777","num":"136","a":"28","b":"64","c":"44","i":"0","officer":"MAVIS SAMUEL","org":""},{"id":"357350","boro":"BROOKLYN","address_num":"920","address_street":"PROSPECT PLACE","address_zip":"11213","lng":"-73.9462","lat":"40.6738","num":"136","a":"10","b":"65","c":"30","i":"0","officer":"ABE HOROWITZ","org":"920 PROSPECT REALTY LLC"},{"id":"349897","boro":"BROOKLYN","address_num":"1971","address_street":"PACIFIC STREET","address_zip":"11233","lng":"-73.9231","lat":"40.6764","num":"135","a":"26","b":"80","c":"29","i":"0","officer":"SANDRA STEPHENSON","org":""},{"id":"220266","boro":"BROOKLYN","address_num":"3313","address_street":"CHURCH AVENUE","address_zip":"11203","lng":"-73.946","lat":"40.651","num":"135","a":"13","b":"63","c":"26","i":"0","officer":"PETE REGAS","org":"AMR CHURCH AVE LLC"},{"id":"215728","boro":"BROOKLYN","address_num":"1218","address_street":"BUSHWICK AVENUE","address_zip":"11221","lng":"-73.9157","lat":"40.6878","num":"134","a":"30","b":"93","c":"11","i":"0","officer":"ROSLYN SMYTHE","org":""},{"id":"386663","boro":"BROOKLYN","address_num":"28","address_street":"VERMONT STREET","address_zip":"11207","lng":"-73.8961","lat":"40.6794","num":"133","a":"24","b":"62","c":"47","i":"0","officer":"MARIE AGARRE SAJOUS","org":""},{"id":"240424","boro":"BROOKLYN","address_num":"192","address_street":"EAST 8 STREET","address_zip":"11218","lng":"-73.9723","lat":"40.6453","num":"133","a":"28","b":"93","c":"12","i":"0","officer":"MICHAEL O'MEARA","org":"192 E 8 ST HOUSING CORP"},{"id":"879881","boro":"BROOKLYN","address_num":"1843","address_street":"PITKIN AVENUE","address_zip":"11212","lng":"-73.9049","lat":"40.6708","num":"132","a":"10","b":"15","c":"25","i":"0","officer":"KEVIN REISS","org":""},{"id":"378920","boro":"BROOKLYN","address_num":"302","address_street":"STUYVESANT AVENUE","address_zip":"11233","lng":"-73.9326","lat":"40.6844","num":"131","a":"22","b":"70","c":"39","i":"0","officer":"STEVE FAISON","org":""},{"id":"271619","boro":"BROOKLYN","address_num":"192","address_street":"EAST 56 STREET","address_zip":"11203","lng":"-73.9249","lat":"40.6521","num":"131","a":"11","b":"54","c":"19","i":"0","officer":"MENDEL KAFF","org":"TOP CHOICE ESTATES LLC."},{"id":"231122","boro":"BROOKLYN","address_num":"2158","address_street":"DEAN STREET","address_zip":"11233","lng":"-73.9161","lat":"40.6748","num":"131","a":"2","b":"16","c":"27","i":"1","officer":"VERLINDA DEANE","org":""},{"id":"360464","boro":"BROOKLYN","address_num":"246","address_street":"MALCOLM X BOULEVARD","address_zip":"11233","lng":"-73.9297","lat":"40.6846","num":"130","a":"12","b":"58","c":"14","i":"0","officer":"JUAN CRUZ","org":"246 MALCOM X REALTY LLC"},{"id":"287590","boro":"BROOKLYN","address_num":"1363","address_street":"EASTERN PARKWAY","address_zip":"11233","lng":"-73.9232","lat":"40.6688","num":"130","a":"36","b":"51","c":"24","i":"0","officer":"JOYCELYN DOXERIE","org":""},{"id":"807595","boro":"BROOKLYN","address_num":"1311","address_street":"AVENUE K","address_zip":"11230","lng":"-73.9622","lat":"40.6229","num":"129","a":"9","b":"84","c":"8","i":"0","officer":"MORRIS LIEBERMAN","org":"1311 AVENUE K REALTY LLC"},{"id":"397035","boro":"BROOKLYN","address_num":"633","address_street":"WILSON AVENUE","address_zip":"11207","lng":"-73.9059","lat":"40.6897","num":"129","a":"13","b":"71","c":"22","i":"0","officer":"THOMAS ROBERTS","org":""},{"id":"807511","boro":"BROOKLYN","address_num":"368","address_street":"87 STREET","address_zip":"11209","lng":"-74.0293","lat":"40.6222","num":"129","a":"37","b":"47","c":"21","i":"0","officer":"MARIA NOTIAS","org":"364-368 REALTY LLC"},{"id":"199155","boro":"BROOKLYN","address_num":"31","address_street":"BARTLETT STREET","address_zip":"11206","lng":"-73.9473","lat":"40.7009","num":"129","a":"17","b":"63","c":"49","i":"0","officer":"MEI CHUI","org":""},{"id":"357354","boro":"BROOKLYN","address_num":"930","address_street":"PROSPECT PLACE","address_zip":"11213","lng":"-73.9458","lat":"40.6738","num":"128","a":"18","b":"54","c":"36","i":"0","officer":"SETH MILLER","org":"930-940 LLCMMM, LLC"},{"id":"347162","boro":"BROOKLYN","address_num":"1055","address_street":"OCEAN AVENUE","address_zip":"11226","lng":"-73.9581","lat":"40.6366","num":"128","a":"17","b":"47","c":"13","i":"1","officer":"ISAAC SCHWARTZ","org":"2007 FOSTER, LLC"},{"id":"311297","boro":"BROOKLYN","address_num":"1334","address_street":"HERKIMER STREET","address_zip":"11233","lng":"-73.9094","lat":"40.6772","num":"128","a":"8","b":"75","c":"45","i":"0","officer":"NEIL LOCHAN","org":""},{"id":"149899","boro":"BROOKLYN","address_num":"961","address_street":"42 STREET","address_zip":"11219","lng":"-73.995","lat":"40.6434","num":"128","a":"26","b":"74","c":"22","i":"0","officer":"","org":""},{"id":"396802","boro":"BROOKLYN","address_num":"157","address_street":"WILSON AVENUE","address_zip":"11237","lng":"-73.9247","lat":"40.7004","num":"127","a":"21","b":"75","c":"31","i":"0","officer":"JOHN SIRAGUSA","org":""},{"id":"207323","boro":"BROOKLYN","address_num":"1027","address_street":"BELMONT AVENUE","address_zip":"11208","lng":"-73.8712","lat":"40.6744","num":"127","a":"2","b":"3","c":"47","i":"0","officer":"MICHAEL MCKAY","org":""},{"id":"152914","boro":"BROOKLYN","address_num":"1601","address_street":"48 STREET","address_zip":"11204","lng":"-73.9845","lat":"40.6316","num":"127","a":"3","b":"100","c":"24","i":"0","officer":"","org":"MSGHH"},{"id":"352062","boro":"BROOKLYN","address_num":"804","address_street":"PARK PLACE","address_zip":"11216","lng":"-73.951","lat":"40.6732","num":"127","a":"0","b":"85","c":"18","i":"0","officer":"SARAH JULIEN","org":""},{"id":"379537","boro":"BROOKLYN","address_num":"375","address_street":"SUMPTER STREET","address_zip":"11233","lng":"-73.9101","lat":"40.6813","num":"126","a":"17","b":"88","c":"14","i":"0","officer":"MARC EUGENE","org":"375 SUMPTER ST, CORP"},{"id":"213173","boro":"BROOKLYN","address_num":"3056","address_street":"BRIGHTON 13 STREET","address_zip":"11235","lng":"-73.9565","lat":"40.5791","num":"126","a":"17","b":"97","c":"12","i":"0","officer":"KEVIN EBBECKE","org":""},{"id":"313948","boro":"BROOKLYN","address_num":"869","address_street":"HOPKINSON AVENUE","address_zip":"11212","lng":"-73.9133","lat":"40.6704","num":"126","a":"19","b":"74","c":"26","i":"0","officer":"ANTHONY PAGONO","org":"869 HOPKINSON AVE REALTY CORP"},{"id":"304418","boro":"BROOKLYN","address_num":"706","address_street":"GREENE AVENUE","address_zip":"11221","lng":"-73.9403","lat":"40.6894","num":"125","a":"18","b":"90","c":"10","i":"0","officer":"DARRICK WIDER","org":""},{"id":"187353","boro":"BROOKLYN","address_num":"110","address_street":"AVENUE C","address_zip":"11218","lng":"-73.9786","lat":"40.6403","num":"125","a":"21","b":"79","c":"15","i":"0","officer":"BARRY GOTTEHRER","org":"AVENUE C ASSOCIATES LLC"},{"id":"290821","boro":"BROOKLYN","address_num":"556","address_street":"EVERGREEN AVENUE","address_zip":"11221","lng":"-73.9166","lat":"40.6906","num":"125","a":"31","b":"85","c":"9","i":"0","officer":"VINCENT RIGGINS","org":""},{"id":"314782","boro":"BROOKLYN","address_num":"201","address_street":"HULL STREET","address_zip":"11233","lng":"-73.9089","lat":"40.68","num":"125","a":"6","b":"59","c":"56","i":"3","officer":"CHERYL IGHODARO","org":"MACBAIN DEVELOPMENT LLC"},{"id":"336123","boro":"BROOKLYN","address_num":"2803","address_street":"MERMAID AVENUE","address_zip":"11224","lng":"-73.9945","lat":"40.5758","num":"125","a":"5","b":"90","c":"22","i":"0","officer":"EVGENY FRIEDMAN","org":"BLOODSTONE REALTY CORP"},{"id":"333051","boro":"BROOKLYN","address_num":"215","address_street":"MARION STREET","address_zip":"11233","lng":"-73.9211","lat":"40.6808","num":"124","a":"2","b":"11","c":"42","i":"1","officer":"","org":""},{"id":"330967","boro":"BROOKLYN","address_num":"456","address_street":"MADISON STREET","address_zip":"11221","lng":"-73.9398","lat":"40.6857","num":"123","a":"41","b":"42","c":"39","i":"1","officer":"RHEA MURRAY","org":""},{"id":"376352","boro":"BROOKLYN","address_num":"1298","address_street":"STERLING PLACE","address_zip":"11213","lng":"-73.9356","lat":"40.6715","num":"123","a":"14","b":"58","c":"36","i":"0","officer":"JOEL WOURTZBER","org":"MASTERSON"},{"id":"349472","boro":"BROOKLYN","address_num":"1232","address_street":"PACIFIC STREET","address_zip":"11216","lng":"-73.951","lat":"40.6775","num":"123","a":"10","b":"73","c":"28","i":"0","officer":"ISAAC SCHWARTZ","org":"1234 PACIFIC MGMT LLC"},{"id":"352599","boro":"BROOKLYN","address_num":"150","address_street":"PATCHEN AVENUE","address_zip":"11221","lng":"-73.927","lat":"40.6862","num":"122","a":"31","b":"67","c":"5","i":"0","officer":"KELVIN CORBIN","org":"PATCH REALTY CORPORATION"},{"id":"356836","boro":"BROOKLYN","address_num":"1608","address_street":"PROSPECT PLACE","address_zip":"11233","lng":"-73.9233","lat":"40.6726","num":"121","a":"0","b":"8","c":"26","i":"0","officer":"GERALD DAVID","org":"MR. GERALD DAVIS, P.C. LLC"},{"id":"221874","boro":"BROOKLYN","address_num":"95","address_street":"CLAY STREET","address_zip":"11222","lng":"-73.9539","lat":"40.7369","num":"121","a":"12","b":"51","c":"58","i":"0","officer":"MALINA NEALIS","org":"95 CLAY STREET LLC"},{"id":"321400","boro":"BROOKLYN","address_num":"714","address_street":"KNICKERBOCKER AVENUE","address_zip":"11221","lng":"-73.9106","lat":"40.6941","num":"120","a":"15","b":"73","c":"24","i":"0","officer":"XIANG ZHENG","org":""},{"id":"381197","boro":"BROOKLYN","address_num":"423","address_street":"THROOP AVENUE","address_zip":"11221","lng":"-73.9417","lat":"40.6884","num":"120","a":"12","b":"83","c":"15","i":"0","officer":"ROBERT WILLIAMS","org":"423 THROOP LLC"},{"id":"220825","boro":"BROOKLYN","address_num":"2802","address_street":"CLARENDON ROAD","address_zip":"11226","lng":"-73.9504","lat":"40.6429","num":"120","a":"19","b":"58","c":"22","i":"0","officer":"MITCHELL HILL","org":"KELWIN REALTY CO LLC"},{"id":"314727","boro":"BROOKLYN","address_num":"156","address_street":"HULL STREET","address_zip":"11233","lng":"-73.9095","lat":"40.6795","num":"119","a":"12","b":"78","c":"29","i":"0","officer":"JOHN LEVY","org":""},{"id":"327202","boro":"BROOKLYN","address_num":"247","address_street":"LINDEN BOULEVARD","address_zip":"11226","lng":"-73.95","lat":"40.6529","num":"119","a":"20","b":"41","c":"35","i":"0","officer":"PEARL DYER","org":"241 LINDEN BLVD INC"},{"id":"267635","boro":"BROOKLYN","address_num":"412","address_street":"EAST 51 STREET","address_zip":"11203","lng":"-73.9296","lat":"40.6514","num":"119","a":"10","b":"88","c":"13","i":"0","officer":"HENRY THOM","org":"FIRST M W H & G INC"},{"id":"369279","boro":"BROOKLYN","address_num":"560","address_street":"SHEFFIELD AVENUE","address_zip":"11207","lng":"-73.8949","lat":"40.6632","num":"119","a":"10","b":"60","c":"27","i":"0","officer":"NORMAN RAPPAPORT","org":"RAPVILLE LLC"},{"id":"362432","boro":"BROOKLYN","address_num":"318","address_street":"ROCHESTER AVENUE","address_zip":"11213","lng":"-73.9288","lat":"40.6671","num":"118","a":"30","b":"56","c":"25","i":"0","officer":"JOSEPH EMILE","org":"CASCADE PROPERTY MGMT,LLC"},{"id":"809563","boro":"BROOKLYN","address_num":"1535","address_street":"STERLING PLACE","address_zip":"11213","lng":"-73.9277","lat":"40.6714","num":"118","a":"8","b":"61","c":"12","i":"0","officer":"TROY STEVENS JR","org":"ST JOHN'S I ASSOCIATES"},{"id":"349460","boro":"BROOKLYN","address_num":"1200","address_street":"PACIFIC STREET","address_zip":"11216","lng":"-73.9521","lat":"40.6775","num":"118","a":"24","b":"80","c":"12","i":"0","officer":"JOEL FRIEDMAN","org":"THE BEDFORD SHIRE ESTATE LLC"},{"id":"234789","boro":"BROOKLYN","address_num":"125","address_street":"DUMONT AVENUE","address_zip":"11212","lng":"-73.9152","lat":"40.6633","num":"117","a":"4","b":"11","c":"20","i":"0","officer":"GREGORY LASPINA","org":"2074 LOUNGE INC"},{"id":"294126","boro":"BROOKLYN","address_num":"684","address_street":"FLUSHING AVENUE","address_zip":"11206","lng":"-73.9454","lat":"40.7001","num":"116","a":"8","b":"67","c":"19","i":"0","officer":"ALLEN GETTER","org":"684 FLUSHING GARDENS LLC"},{"id":"314792","boro":"BROOKLYN","address_num":"212","address_street":"HULL STREET","address_zip":"11233","lng":"-73.9071","lat":"40.6797","num":"116","a":"8","b":"48","c":"26","i":"0","officer":"MEIR BARON","org":"HULL STREET ASSOCIATES LLC"},{"id":"339533","boro":"BROOKLYN","address_num":"312","address_street":"MONTAUK AVENUE","address_zip":"11208","lng":"-73.8774","lat":"40.6709","num":"116","a":"8","b":"59","c":"47","i":"0","officer":"JOSEPH BRADLEY","org":"JTJ REALTY CORP"},{"id":"221768","boro":"BROOKLYN","address_num":"724","address_street":"CLASSON AVENUE","address_zip":"11238","lng":"-73.9602","lat":"40.6754","num":"116","a":"0","b":"75","c":"22","i":"0","officer":"JASMINE STEADMAN","org":"LAST WILL & TESTAMENT OF CECIL"},{"id":"331249","boro":"BROOKLYN","address_num":"832","address_street":"MADISON STREET","address_zip":"11221","lng":"-73.9246","lat":"40.6875","num":"116","a":"10","b":"75","c":"31","i":"0","officer":"KAREN GRAY","org":"PETRA FINANCE C\/O ACQURA LOAN"},{"id":"129406","boro":"BROOKLYN","address_num":"6324","address_street":"4 AVENUE","address_zip":"11220","lng":"-74.021","lat":"40.6389","num":"116","a":"21","b":"43","c":"26","i":"0","officer":"JACQUELINE ARROYO","org":"DELERIMAR REALTY CORP"},{"id":"198186","boro":"BROOKLYN","address_num":"543","address_street":"BAINBRIDGE STREET","address_zip":"11233","lng":"-73.9153","lat":"40.683","num":"116","a":"18","b":"61","c":"13","i":"0","officer":"MARY BANKS","org":""},{"id":"287536","boro":"BROOKLYN","address_num":"1159","address_street":"EASTERN PARKWAY","address_zip":"11213","lng":"-73.9298","lat":"40.6692","num":"115","a":"25","b":"30","c":"20","i":"0","officer":"ABE GREENBAUM","org":"1159 EASTERN PARKWAY, LLC"},{"id":"327705","boro":"BROOKLYN","address_num":"308","address_street":"LINDEN STREET","address_zip":"11237","lng":"-73.9142","lat":"40.6984","num":"114","a":"1","b":"3","c":"42","i":"0","officer":"JESUS LAZU","org":""},{"id":"808271","boro":"BROOKLYN","address_num":"697","address_street":"EVERGREEN AVENUE","address_zip":"11207","lng":"-73.9084","lat":"40.6863","num":"114","a":"7","b":"17","c":"11","i":"0","officer":"WILLIAM ABRAMS","org":""},{"id":"374625","boro":"BROOKLYN","address_num":"1651","address_street":"ST MARKS AVENUE","address_zip":"11233","lng":"-73.9123","lat":"40.6734","num":"113","a":"33","b":"43","c":"37","i":"0","officer":"RONALD VICARS","org":""},{"id":"139948","boro":"BROOKLYN","address_num":"4512","address_street":"15 AVENUE","address_zip":"11219","lng":"-73.9859","lat":"40.6345","num":"113","a":"1","b":"12","c":"1","i":"0","officer":"","org":""},{"id":"348816","boro":"BROOKLYN","address_num":"520","address_street":"OCEAN VIEW AVENUE","address_zip":"11235","lng":"-73.9624","lat":"40.5793","num":"113","a":"10","b":"61","c":"42","i":"0","officer":"ALAN MALEH","org":"520 OCEANVIEW AVE LLC"},{"id":"216509","boro":"BROOKLYN","address_num":"150","address_street":"CALYER STREET","address_zip":"11222","lng":"-73.9544","lat":"40.7275","num":"112","a":"27","b":"63","c":"16","i":"0","officer":"LESZEK SIEDLECKI","org":""},{"id":"334821","boro":"BROOKLYN","address_num":"663","address_street":"MAC DONOUGH STREET","address_zip":"11233","lng":"-73.9196","lat":"40.684","num":"112","a":"28","b":"31","c":"17","i":"0","officer":"JOHN CUNNINGHAM JR","org":"J. CUNNINGHAM JR INC"},{"id":"355094","boro":"BROOKLYN","address_num":"1016","address_street":"PRESIDENT STREET","address_zip":"11225","lng":"-73.958","lat":"40.6685","num":"112","a":"13","b":"51","c":"31","i":"0","officer":"ALFRED SAYEGH","org":"OMEGA GINUBLI PARTNERS LLC"},{"id":"380170","boro":"BROOKLYN","address_num":"663","address_street":"SUTTER AVENUE","address_zip":"11207","lng":"-73.894","lat":"40.6697","num":"111","a":"7","b":"77","c":"27","i":"0","officer":"RONALD DHANPAT","org":""},{"id":"373589","boro":"BROOKLYN","address_num":"1153","address_street":"ST JOHNS PLACE","address_zip":"11213","lng":"-73.9401","lat":"40.6714","num":"111","a":"37","b":"62","c":"7","i":"0","officer":"DAVE HOWELL.JR","org":""},{"id":"313632","boro":"BROOKLYN","address_num":"1043","address_street":"HOPKINSON AVENUE","address_zip":"11212","lng":"-73.9133","lat":"40.6704","num":"110","a":"28","b":"62","c":"18","i":"0","officer":"ROBERT RICKS, JR","org":""},{"id":"158959","boro":"BROOKLYN","address_num":"814","address_street":"56 STREET","address_zip":"11220","lng":"-74.0057","lat":"40.6376","num":"110","a":"10","b":"83","c":"17","i":"0","officer":"MIRIAM CHAN","org":"816 56TH ST CORP"},{"id":"129242","boro":"BROOKLYN","address_num":"5416","address_street":"4 AVENUE","address_zip":"11220","lng":"-74.0155","lat":"40.6441","num":"110","a":"10","b":"39","c":"15","i":"0","officer":"HERMAN CAMPOVERDE","org":"DAJOS MANAGEMENT CO,LLC"},{"id":"360177","boro":"BROOKLYN","address_num":"59","address_street":"RALPH AVENUE","address_zip":"11221","lng":"-73.9235","lat":"40.6884","num":"110","a":"13","b":"37","c":"60","i":"0","officer":"ABE GREEN","org":"59 RALPH REALTY LLC"},{"id":"306728","boro":"BROOKLYN","address_num":"1351","address_street":"HANCOCK STREET","address_zip":"11237","lng":"-73.909","lat":"40.6948","num":"109","a":"0","b":"4","c":"36","i":"0","officer":"EMILY AMES","org":"FAIRBANKS CAPITAL CORP"},{"id":"326251","boro":"BROOKLYN","address_num":"1188","address_street":"LINCOLN PLACE","address_zip":"11213","lng":"-73.9373","lat":"40.6699","num":"109","a":"12","b":"63","c":"15","i":"0","officer":"SHAUL KOPELOWITZ","org":"LINCOLN 1188 REALTY LLC"},{"id":"375845","boro":"BROOKLYN","address_num":"173","address_street":"STARR STREET","address_zip":"11237","lng":"-73.9244","lat":"40.7042","num":"108","a":"8","b":"31","c":"67","i":"2","officer":"EUGENE HANNAH","org":"E H STARR CORP"},{"id":"381231","boro":"BROOKLYN","address_num":"537","address_street":"THROOP AVENUE","address_zip":"11221","lng":"-73.9409","lat":"40.6838","num":"108","a":"28","b":"64","c":"16","i":"0","officer":"SHIMON SABAH","org":"537 THROOP AVE, LLC"},{"id":"219093","boro":"BROOKLYN","address_num":"487","address_street":"CHAUNCEY STREET","address_zip":"11233","lng":"-73.9151","lat":"40.6823","num":"108","a":"0","b":"17","c":"9","i":"1","officer":"CHERYL KINCH","org":"487 MANAGEMENT LLC"},{"id":"357898","boro":"BROOKLYN","address_num":"1426","address_street":"PUTNAM AVENUE","address_zip":"11237","lng":"-73.9106","lat":"40.6961","num":"107","a":"7","b":"12","c":"12","i":"0","officer":"DAVID LANDAU","org":"SHEFA GARDENS LLC"},{"id":"341058","boro":"BROOKLYN","address_num":"982","address_street":"MYRTLE AVENUE","address_zip":"11206","lng":"-73.9421","lat":"40.6959","num":"106","a":"13","b":"59","c":"12","i":"0","officer":"HANNAH GETTER","org":"MARK WASSERMAN INC"},{"id":"287943","boro":"BROOKLYN","address_num":"686","address_street":"EASTERN PARKWAY","address_zip":"11213","lng":"-73.9457","lat":"40.6691","num":"106","a":"16","b":"40","c":"29","i":"0","officer":"AARON KUPERMAN","org":""},{"id":"352068","boro":"BROOKLYN","address_num":"817","address_street":"PARK PLACE","address_zip":"11216","lng":"-73.9506","lat":"40.6737","num":"106","a":"20","b":"80","c":"6","i":"0","officer":"STEVEN ENGEL","org":"817 PARK PLACE"},{"id":"283878","boro":"BROOKLYN","address_num":"452","address_street":"EAST 95 STREET","address_zip":"11212","lng":"-73.9178","lat":"40.6561","num":"106","a":"27","b":"55","c":"23","i":"0","officer":"ANTHONY KIRTON","org":""},{"id":"383398","boro":"BROOKLYN","address_num":"1660","address_street":"UNION STREET","address_zip":"11213","lng":"-73.9336","lat":"40.6677","num":"106","a":"11","b":"48","c":"43","i":"0","officer":"JOSEPH ZWEIBEL","org":"CY EMPIRE CORP"},{"id":"222227","boro":"BROOKLYN","address_num":"440","address_street":"CLEVELAND STREET","address_zip":"11208","lng":"-73.8845","lat":"40.6739","num":"105","a":"29","b":"51","c":"18","i":"0","officer":"ANICKA HAMILTON","org":""},{"id":"327376","boro":"BROOKLYN","address_num":"50","address_street":"LINDEN BOULEVARD","address_zip":"11226","lng":"-73.9572","lat":"40.652","num":"105","a":"20","b":"40","c":"33","i":"0","officer":"ELIZABETH ALLEN","org":"EL GEORGE REALTY CORP"},{"id":"366813","boro":"BROOKLYN","address_num":"250","address_street":"SCHAEFER STREET","address_zip":"11207","lng":"-73.9059","lat":"40.6912","num":"105","a":"16","b":"61","c":"28","i":"0","officer":"MIGUEL GONZALES","org":""},{"id":"341567","boro":"BROOKLYN","address_num":"300","address_street":"NASSAU AVENUE","address_zip":"11222","lng":"-73.9384","lat":"40.726","num":"105","a":"8","b":"35","c":"31","i":"0","officer":"MARTIN EHREINRICH","org":"SALLMAR REALTY"},{"id":"290614","boro":"BROOKLYN","address_num":"127","address_street":"EVERGREEN AVENUE","address_zip":"11206","lng":"-73.9308","lat":"40.6992","num":"104","a":"12","b":"47","c":"13","i":"1","officer":"MEILECH WEISS","org":"PILOT REALTY LLC"},{"id":"337327","boro":"BROOKLYN","address_num":"177","address_street":"MILFORD STREET","address_zip":"11208","lng":"-73.8769","lat":"40.6753","num":"104","a":"1","b":"21","c":"13","i":"0","officer":"BRIEN MINGO","org":"MILFORD ST PROPERTIES LLC"},{"id":"287427","boro":"BROOKLYN","address_num":"702","address_street":"EAST NEW YORK AVENUE","address_zip":"11203","lng":"-73.9393","lat":"40.662","num":"103","a":"4","b":"60","c":"16","i":"1","officer":"NAFTALI FRANKEL","org":"702 ASSOCIATES #1"},{"id":"326545","boro":"BROOKLYN","address_num":"326","address_street":"LINCOLN PLACE","address_zip":"11238","lng":"-73.9653","lat":"40.6731","num":"102","a":"14","b":"37","c":"37","i":"0","officer":"JOSEPH ALPERT","org":""},{"id":"327191","boro":"BROOKLYN","address_num":"241","address_street":"LINDEN BOULEVARD","address_zip":"11226","lng":"-73.9501","lat":"40.6529","num":"102","a":"6","b":"52","c":"22","i":"0","officer":"DWIGHT KING","org":"241 LINDEN BOULEVARD, INC"},{"id":"349621","boro":"BROOKLYN","address_num":"1444","address_street":"PACIFIC STREET","address_zip":"11216","lng":"-73.9422","lat":"40.677","num":"102","a":"19","b":"68","c":"15","i":"0","officer":"JOSEPH SPREI","org":"1444 PACIFIC REALTY INC"},{"id":"351686","boro":"BROOKLYN","address_num":"1833","address_street":"PARK PLACE","address_zip":"11233","lng":"-73.9165","lat":"40.6718","num":"101","a":"23","b":"38","c":"24","i":"0","officer":"CHARLES BOUCHER","org":""},{"id":"357860","boro":"BROOKLYN","address_num":"1368","address_street":"PUTNAM AVENUE","address_zip":"11221","lng":"-73.9123","lat":"40.6943","num":"101","a":"0","b":"38","c":"17","i":"0","officer":"PINCHOS LOKETCH","org":"1368 PUTNAM AVENUE LLC"},{"id":"311271","boro":"BROOKLYN","address_num":"1301","address_street":"HERKIMER STREET","address_zip":"11233","lng":"-73.9103","lat":"40.6777","num":"101","a":"6","b":"28","c":"11","i":"0","officer":"THELMA BEAUMONT","org":""},{"id":"222337","boro":"BROOKLYN","address_num":"690","address_street":"CLEVELAND STREET","address_zip":"11208","lng":"-73.8829","lat":"40.6675","num":"101","a":"13","b":"40","c":"28","i":"0","officer":"ABRAHAM FRIEDMAN","org":"J & A 10-07 TRUST"},{"id":"350374","boro":"BROOKLYN","address_num":"932","address_street":"PACIFIC STREET","address_zip":"11238","lng":"-73.9627","lat":"40.6796","num":"101","a":"16","b":"58","c":"27","i":"0","officer":"HASHEM MOHAMMED","org":""},{"id":"360556","boro":"BROOKLYN","address_num":"65","address_street":"MALCOLM X BOULEVARD","address_zip":"11221","lng":"-73.9305","lat":"40.6919","num":"101","a":"11","b":"38","c":"14","i":"0","officer":"SAM ARON","org":"PRILUKI ASSOCIATES LLC"},{"id":"180961","boro":"BROOKLYN","address_num":"369","address_street":"87 STREET","address_zip":"11209","lng":"-74.0292","lat":"40.6223","num":"100","a":"9","b":"45","c":"41","i":"0","officer":"KALLIOPI NOTIAS","org":"369-371 REALTY LLC"},{"id":"339577","boro":"BROOKLYN","address_num":"391","address_street":"MONTAUK AVENUE","address_zip":"11208","lng":"-73.8763","lat":"40.6687","num":"99","a":"27","b":"36","c":"27","i":"0","officer":"WINSTON RAMKISSOON","org":""},{"id":"355424","boro":"BROOKLYN","address_num":"1581","address_street":"PRESIDENT STREET","address_zip":"11213","lng":"-73.9357","lat":"40.6675","num":"99","a":"8","b":"38","c":"36","i":"0","officer":"AHMED MOHAMED","org":""},{"id":"297824","boro":"BROOKLYN","address_num":"2194","address_street":"FULTON STREET","address_zip":"11233","lng":"-73.9088","lat":"40.6779","num":"98","a":"14","b":"74","c":"10","i":"0","officer":"SAM PFEIFFER","org":"SHIF PROPERTIES 2194 LLC"},{"id":"185955","boro":"BROOKLYN","address_num":"2298","address_street":"ATLANTIC AVENUE","address_zip":"11233","lng":"-73.9093","lat":"40.6759","num":"98","a":"7","b":"8","c":"29","i":"0","officer":"SYED AHMED","org":""},{"id":"306875","boro":"BROOKLYN","address_num":"223","address_street":"HANCOCK STREET","address_zip":"11216","lng":"-73.9473","lat":"40.6831","num":"98","a":"10","b":"54","c":"34","i":"0","officer":"PAMELA ABALU","org":""},{"id":"397025","boro":"BROOKLYN","address_num":"622","address_street":"WILSON AVENUE","address_zip":"11207","lng":"-73.9062","lat":"40.6893","num":"98","a":"12","b":"54","c":"31","i":"1","officer":"JAMAL WILLIAMS","org":"ESTATE OF JERMAINE MICHAEL WILLIAMS"},{"id":"246202","boro":"BROOKLYN","address_num":"209","address_street":"EAST 16 STREET","address_zip":"11226","lng":"-73.964","lat":"40.6454","num":"98","a":"10","b":"44","c":"34","i":"0","officer":"MORRIS LIEBERMAN","org":"209 REALTY LLC"},{"id":"150018","boro":"BROOKLYN","address_num":"1424","address_street":"43 STREET","address_zip":"11219","lng":"-73.9859","lat":"40.6364","num":"98","a":"15","b":"47","c":"15","i":"0","officer":"JACOB FELDMAN","org":"BAIS TACHLIS INC"},{"id":"283812","boro":"BROOKLYN","address_num":"243","address_street":"EAST 95 STREET","address_zip":"11212","lng":"-73.9219","lat":"40.6606","num":"96","a":"21","b":"38","c":"37","i":"0","officer":"MARLON BROOKS","org":""},{"id":"360624","boro":"BROOKLYN","address_num":"1106","address_street":"REMSEN AVENUE","address_zip":"11236","lng":"-73.9084","lat":"40.6419","num":"96","a":"8","b":"50","c":"9","i":"0","officer":"ISAAC ASH","org":"REMSEN APTS LLC"},{"id":"303066","boro":"BROOKLYN","address_num":"2","address_street":"GRANT AVENUE","address_zip":"11208","lng":"-73.869","lat":"40.691","num":"96","a":"14","b":"29","c":"20","i":"0","officer":"LEONARD GREENIOGE","org":"2 GRANT AVE., INC"},{"id":"164200","boro":"BROOKLYN","address_num":"1053","address_street":"64 STREET","address_zip":"11219","lng":"-74.006","lat":"40.6299","num":"95","a":"28","b":"34","c":"22","i":"0","officer":"","org":"1053 64TH ST TRUST"},{"id":"388123","boro":"BROOKLYN","address_num":"506","address_street":"WARREN STREET","address_zip":"11217","lng":"-73.9851","lat":"40.6827","num":"95","a":"15","b":"74","c":"5","i":"1","officer":"GREGORIO NUNEZ","org":"WARREN STREET REALTY CORP"},{"id":"342514","boro":"BROOKLYN","address_num":"607","address_street":"NEW JERSEY AVENUE","address_zip":"11207","lng":"-73.8926","lat":"40.6643","num":"95","a":"0","b":"48","c":"18","i":"0","officer":"LLOYD LEWIS","org":""},{"id":"129905","boro":"BROOKLYN","address_num":"64","address_street":"4 PLACE","address_zip":"11231","lng":"-73.9995","lat":"40.678","num":"95","a":"26","b":"34","c":"14","i":"0","officer":"MARION HOOGERWENF","org":"64 4TH BROOKLYN REALTY CORP"},{"id":"327969","boro":"BROOKLYN","address_num":"584","address_street":"LINWOOD STREET","address_zip":"11208","lng":"-73.8821","lat":"40.6709","num":"95","a":"3","b":"58","c":"20","i":"0","officer":"MICHAEL KAHAN","org":"EMPORIUM.MANAGEMENT"},{"id":"219609","boro":"BROOKLYN","address_num":"612","address_street":"CHESTER STREET","address_zip":"11212","lng":"-73.9086","lat":"40.6564","num":"95","a":"13","b":"39","c":"16","i":"0","officer":"WHITTAKER MACK","org":"LONG CREEK GROUP, LLC"},{"id":"324755","boro":"BROOKLYN","address_num":"121","address_street":"LEWIS AVENUE","address_zip":"11221","lng":"-73.9367","lat":"40.6926","num":"95","a":"10","b":"63","c":"22","i":"0","officer":"CALVIN SMILEY","org":""},{"id":"221274","boro":"BROOKLYN","address_num":"1026","address_street":"CLARKSON AVENUE","address_zip":"11212","lng":"-73.9238","lat":"40.6584","num":"95","a":"3","b":"49","c":"14","i":"0","officer":"BRIEN MINGO","org":"280 EAST CORPORATION"},{"id":"398761","boro":"BROOKLYN","address_num":"455","address_street":"WYONA STREET","address_zip":"11207","lng":"-73.8915","lat":"40.6675","num":"94","a":"7","b":"67","c":"9","i":"0","officer":"ANDREW KULAK","org":"ANDREW H. KULAK"},{"id":"218249","boro":"BROOKLYN","address_num":"38","address_street":"CATHERINE STREET","address_zip":"11211","lng":"-73.9372","lat":"40.7141","num":"94","a":"27","b":"54","c":"13","i":"0","officer":"","org":""},{"id":"284464","boro":"BROOKLYN","address_num":"406","address_street":"EAST 96 STREET","address_zip":"11212","lng":"-73.9179","lat":"40.6575","num":"94","a":"24","b":"49","c":"13","i":"0","officer":"CHRIS ASHMAN","org":""},{"id":"379420","boro":"BROOKLYN","address_num":"191","address_street":"SUMPTER STREET","address_zip":"11233","lng":"-73.918","lat":"40.6802","num":"94","a":"14","b":"39","c":"25","i":"0","officer":"JUAN CRUZ","org":"191 BSD REALTY LLC"},{"id":"295966","boro":"BROOKLYN","address_num":"726","address_street":"FRANKLIN AVENUE","address_zip":"11238","lng":"-73.9571","lat":"40.6738","num":"94","a":"6","b":"78","c":"10","i":"0","officer":"STEVE BAILEY","org":""},{"id":"213069","boro":"BROOKLYN","address_num":"120","address_street":"BRIGHTON 11 STREET","address_zip":"11235","lng":"-73.958","lat":"40.58","num":"94","a":"45","b":"40","c":"7","i":"1","officer":"HOWARD OSHER","org":""},{"id":"155401","boro":"BROOKLYN","address_num":"1259","address_street":"52 STREET","address_zip":"11219","lng":"-73.9944","lat":"40.6339","num":"93","a":"4","b":"53","c":"8","i":"0","officer":"CHANA TAUB","org":""},{"id":"209757","boro":"BROOKLYN","address_num":"1819","address_street":"BEVERLY ROAD","address_zip":"11226","lng":"-73.9615","lat":"40.6449","num":"93","a":"19","b":"37","c":"31","i":"0","officer":"STEVEN TANNEN","org":"CRP 1819 BEVERLY LLC"},{"id":"208197","boro":"BROOKLYN","address_num":"1131","address_street":"BERGEN STREET","address_zip":"11216","lng":"-73.9482","lat":"40.6763","num":"93","a":"23","b":"53","c":"14","i":"0","officer":"LEANDO FRETT","org":""},{"id":"354690","boro":"BROOKLYN","address_num":"123","address_street":"POWELL STREET","address_zip":"11212","lng":"-73.9042","lat":"40.6717","num":"93","a":"15","b":"60","c":"18","i":"0","officer":"SHIRLEEN CLAPP","org":""},{"id":"396134","boro":"BROOKLYN","address_num":"1122","address_street":"WILLOUGHBY AVENUE","address_zip":"11237","lng":"-73.9253","lat":"40.7014","num":"93","a":"13","b":"50","c":"13","i":"0","officer":"JACOB STUHL","org":"JACK EISEN LLC"},{"id":"298182","boro":"BROOKLYN","address_num":"3247","address_street":"FULTON STREET","address_zip":"11208","lng":"-73.8752","lat":"40.683","num":"92","a":"15","b":"42","c":"16","i":"0","officer":"JAK FARHI","org":"TJA REALTY LLC"},{"id":"339477","boro":"BROOKLYN","address_num":"219","address_street":"MONTAUK AVENUE","address_zip":"11208","lng":"-73.8775","lat":"40.6737","num":"92","a":"12","b":"9","c":"8","i":"1","officer":"DIRK BRAXTON","org":""},{"id":"305591","boro":"BROOKLYN","address_num":"1229","address_street":"HALSEY STREET","address_zip":"11237","lng":"-73.9077","lat":"40.6938","num":"92","a":"9","b":"23","c":"5","i":"1","officer":"BERNARD NEIDERMAN","org":"1229 HALSEY ST LLC"},{"id":"317167","boro":"BROOKLYN","address_num":"359","address_street":"JEFFERSON AVENUE","address_zip":"11221","lng":"-73.9434","lat":"40.6841","num":"92","a":"11","b":"53","c":"28","i":"0","officer":"FRANKLYN WILLIAMS","org":""},{"id":"318053","boro":"BROOKLYN","address_num":"478","address_street":"JEROME STREET","address_zip":"11207","lng":"-73.8861","lat":"40.6698","num":"92","a":"8","b":"63","c":"21","i":"0","officer":"OLUFEMI FALADE","org":""},{"id":"327539","boro":"BROOKLYN","address_num":"820","address_street":"LINDEN BOULEVARD","address_zip":"11203","lng":"-73.9275","lat":"40.6537","num":"91","a":"6","b":"41","c":"21","i":"0","officer":"ISAAC SCHWARTZ","org":"1154 GATES REALTY LLC"},{"id":"327911","boro":"BROOKLYN","address_num":"454","address_street":"LINWOOD STREET","address_zip":"11208","lng":"-73.8829","lat":"40.6743","num":"90","a":"6","b":"52","c":"32","i":"0","officer":"","org":""},{"id":"396959","boro":"BROOKLYN","address_num":"515","address_street":"WILSON AVENUE","address_zip":"11221","lng":"-73.9105","lat":"40.6923","num":"90","a":"13","b":"46","c":"18","i":"0","officer":"GLORIA KARAMANITES","org":""},{"id":"221689","boro":"BROOKLYN","address_num":"512","address_street":"CLASSON AVENUE","address_zip":"11238","lng":"-73.959","lat":"40.6826","num":"90","a":"19","b":"53","c":"10","i":"0","officer":"AUDELINE JEAN","org":""},{"id":"335623","boro":"BROOKLYN","address_num":"22","address_street":"MELROSE STREET","address_zip":"11206","lng":"-73.9353","lat":"40.6978","num":"89","a":"13","b":"56","c":"20","i":"0","officer":"HEERA RAJKUMAR","org":""},{"id":"346099","boro":"BROOKLYN","address_num":"1361","address_street":"NOSTRAND AVENUE","address_zip":"11226","lng":"-73.9494","lat":"40.6534","num":"89","a":"27","b":"40","c":"13","i":"0","officer":"MICHAEL LUMA","org":"LUMA REALTY CORPORATION LLC"},{"id":"317004","boro":"BROOKLYN","address_num":"193","address_street":"JEFFERSON AVENUE","address_zip":"11216","lng":"-73.9498","lat":"40.6835","num":"89","a":"6","b":"34","c":"8","i":"0","officer":"MARK RUBIN","org":"J M DEVELOPMENT ASSOCIATES"},{"id":"327787","boro":"BROOKLYN","address_num":"98","address_street":"LINDEN STREET","address_zip":"11221","lng":"-73.9197","lat":"40.6927","num":"89","a":"7","b":"18","c":"60","i":"0","officer":"JOEL ISRAEL","org":"LINDEN VENTURES"},{"id":"328318","boro":"BROOKLYN","address_num":"15","address_street":"LOCUST STREET","address_zip":"11206","lng":"-73.938","lat":"40.6992","num":"89","a":"5","b":"33","c":"6","i":"0","officer":"DOUGLAS ROSENBERGAS","org":"15 LOCUST REALTY INC"},{"id":"192024","boro":"BROOKLYN","address_num":"1015","address_street":"AVENUE N","address_zip":"11230","lng":"-73.9637","lat":"40.6154","num":"89","a":"11","b":"55","c":"23","i":"0","officer":"ROBERT IZSAK","org":"RIZARO AVENUE N LLC"},{"id":"147354","boro":"BROOKLYN","address_num":"1405","address_street":"35 STREET","address_zip":"11218","lng":"-73.9814","lat":"40.6416","num":"89","a":"20","b":"48","c":"16","i":"0","officer":"SALMON MAYER","org":"1405-35 MANAGEMENT CORP"},{"id":"377702","boro":"BROOKLYN","address_num":"355","address_street":"STOCKHOLM STREET","address_zip":"11237","lng":"-73.9183","lat":"40.7044","num":"89","a":"15","b":"38","c":"5","i":"0","officer":"ANN NASARY","org":"355 STOCKHOLM ST. LLC"},{"id":"381969","boro":"BROOKLYN","address_num":"53","address_street":"TROUTMAN STREET","address_zip":"11206","lng":"-73.9322","lat":"40.6985","num":"88","a":"5","b":"6","c":"5","i":"0","officer":"","org":""},{"id":"378855","boro":"BROOKLYN","address_num":"228","address_street":"STUYVESANT AVENUE","address_zip":"11221","lng":"-73.9332","lat":"40.6872","num":"88","a":"6","b":"52","c":"22","i":"0","officer":"JEROME RAMBERT","org":""},{"id":"321482","boro":"BROOKLYN","address_num":"879","address_street":"KNICKERBOCKER AVENUE","address_zip":"11207","lng":"-73.9048","lat":"40.6914","num":"88","a":"9","b":"68","c":"10","i":"0","officer":"GEORGINA VAZQUEZ","org":""},{"id":"378249","boro":"BROOKLYN","address_num":"2284","address_street":"STRAUSS STREET","address_zip":"11212","lng":"-73.9138","lat":"40.6578","num":"88","a":"16","b":"57","c":"14","i":"1","officer":"KARLENE KERR","org":""},{"id":"182650","boro":"BROOKLYN","address_num":"200","address_street":"ADELPHI STREET","address_zip":"11205","lng":"-73.9719","lat":"40.6918","num":"88","a":"19","b":"65","c":"4","i":"0","officer":"JOY CRICHLOW","org":""},{"id":"295908","boro":"BROOKLYN","address_num":"643","address_street":"FRANKLIN AVENUE","address_zip":"11238","lng":"-73.9556","lat":"40.6764","num":"87","a":"19","b":"48","c":"11","i":"0","officer":"EVETTE MARSHALL","org":"CLASSON VILLAGE LP"},{"id":"312885","boro":"BROOKLYN","address_num":"268","address_street":"HIMROD STREET","address_zip":"11237","lng":"-73.919","lat":"40.7005","num":"87","a":"20","b":"52","c":"4","i":"0","officer":"J LEFKOWITZ","org":"268 HIMROD REALTY LLC"},{"id":"371724","boro":"BROOKLYN","address_num":"40","address_street":"SOMERS STREET","address_zip":"11233","lng":"-73.9106","lat":"40.6786","num":"87","a":"22","b":"53","c":"11","i":"0","officer":"ELI MAHMAN","org":"ZIL CORP"},{"id":"344528","boro":"BROOKLYN","address_num":"76","address_street":"NEWPORT STREET","address_zip":"11212","lng":"-73.9125","lat":"40.6586","num":"87","a":"0","b":"1","c":"11","i":"0","officer":"","org":""},{"id":"362527","boro":"BROOKLYN","address_num":"184","address_street":"ROCKAWAY AVENUE","address_zip":"11233","lng":"-73.9112","lat":"40.6769","num":"87","a":"16","b":"43","c":"28","i":"0","officer":"RAMESH HARRYCHARAM","org":""},{"id":"335757","boro":"BROOKLYN","address_num":"183","address_street":"MENAHAN STREET","address_zip":"11237","lng":"-73.9185","lat":"40.6971","num":"87","a":"5","b":"38","c":"27","i":"0","officer":"DIONISIO ARIAS","org":""},{"id":"317745","boro":"BROOKLYN","address_num":"228","address_street":"JEFFERSON STREET","address_zip":"11237","lng":"-73.9278","lat":"40.7023","num":"87","a":"11","b":"34","c":"20","i":"0","officer":"JERZY MOSCICKI","org":""},{"id":"329146","boro":"BROOKLYN","address_num":"73","address_street":"LOTT AVENUE","address_zip":"11212","lng":"-73.9112","lat":"40.6576","num":"86","a":"23","b":"45","c":"12","i":"0","officer":"REM REALTY CORP 0","org":"REM REALTY CORP"},{"id":"230924","boro":"BROOKLYN","address_num":"1481","address_street":"DEAN STREET","address_zip":"11213","lng":"-73.9391","lat":"40.6765","num":"86","a":"21","b":"23","c":"32","i":"0","officer":"GEORGE DUA-AWEREH","org":""},{"id":"371201","boro":"BROOKLYN","address_num":"529","address_street":"SNEDIKER AVENUE","address_zip":"11207","lng":"-73.8988","lat":"40.6619","num":"86","a":"3","b":"30","c":"24","i":"0","officer":"MUHAMMAD ANWAR","org":""},{"id":"809283","boro":"BROOKLYN","address_num":"497","address_street":"RIVERDALE AVENUE","address_zip":"11207","lng":"-73.8976","lat":"40.6626","num":"86","a":"12","b":"42","c":"12","i":"0","officer":"WINCHESTER KEY","org":"WILLIAMS ASSOCIATES LP"},{"id":"375608","boro":"BROOKLYN","address_num":"315","address_street":"STANHOPE STREET","address_zip":"11237","lng":"-73.9186","lat":"40.7029","num":"86","a":"0","b":"4","c":"22","i":"0","officer":"LUIS CAJIGAS","org":"2270-2274 LORING CORP"},{"id":"369476","boro":"BROOKLYN","address_num":"297","address_street":"SHEPHERD AVENUE","address_zip":"11208","lng":"-73.8813","lat":"40.6773","num":"86","a":"9","b":"32","c":"45","i":"0","officer":"OMAR CAMPBELL","org":""},{"id":"312782","boro":"BROOKLYN","address_num":"70","address_street":"HILL STREET","address_zip":"11208","lng":"-73.8705","lat":"40.6787","num":"85","a":"13","b":"34","c":"31","i":"0","officer":"VINCENT PANTINA","org":""},{"id":"351683","boro":"BROOKLYN","address_num":"1829","address_street":"PARK PLACE","address_zip":"11233","lng":"-73.9167","lat":"40.6718","num":"85","a":"2","b":"16","c":"2","i":"0","officer":"ERNIE MATUTE","org":""},{"id":"185939","boro":"BROOKLYN","address_num":"2270","address_street":"ATLANTIC AVENUE","address_zip":"11233","lng":"-73.9102","lat":"40.676","num":"84","a":"4","b":"25","c":"22","i":"1","officer":"","org":""},{"id":"303693","boro":"BROOKLYN","address_num":"80","address_street":"GREEN STREET","address_zip":"11222","lng":"-73.9586","lat":"40.7331","num":"84","a":"3","b":"30","c":"37","i":"0","officer":"LOUIS DOMINGUEZ","org":""},{"id":"333132","boro":"BROOKLYN","address_num":"346","address_street":"MARION STREET","address_zip":"11233","lng":"-73.9155","lat":"40.681","num":"84","a":"22","b":"42","c":"7","i":"0","officer":"ANDY GUOBADIA","org":""},{"id":"297455","boro":"BROOKLYN","address_num":"1466","address_street":"FULTON STREET","address_zip":"11216","lng":"-73.9423","lat":"40.6797","num":"84","a":"13","b":"29","c":"23","i":"1","officer":"ELAINE SEWELL","org":""},{"id":"207325","boro":"BROOKLYN","address_num":"1029","address_street":"BELMONT AVENUE","address_zip":"11208","lng":"-73.8711","lat":"40.6744","num":"83","a":"1","b":"4","c":"22","i":"0","officer":"MICHAEL MCKAY","org":""},{"id":"376930","boro":"BROOKLYN","address_num":"885","address_street":"STERLING PLACE","address_zip":"11216","lng":"-73.9492","lat":"40.6728","num":"83","a":"9","b":"55","c":"19","i":"0","officer":"ISAAC KATZ","org":"1629 PACIFIC STREET INC"},{"id":"305198","boro":"BROOKLYN","address_num":"16","address_street":"GUNTHER PLACE","address_zip":"11233","lng":"-73.9121","lat":"40.677","num":"83","a":"14","b":"46","c":"17","i":"0","officer":"SONIA THOMPSON","org":""},{"id":"327185","boro":"BROOKLYN","address_num":"238","address_street":"LINDEN BOULEVARD","address_zip":"11226","lng":"-73.9502","lat":"40.6526","num":"83","a":"18","b":"47","c":"6","i":"0","officer":"SAM SCHWARTZ","org":"LINDEN GARDENS INC"},{"id":"356564","boro":"BROOKLYN","address_num":"270","address_street":"PROSPECT PARK WEST","address_zip":"11215","lng":"-73.9824","lat":"40.6585","num":"83","a":"15","b":"52","c":"7","i":"1","officer":"HEUNG TAM","org":""},{"id":"128896","boro":"BROOKLYN","address_num":"140","address_street":"4 AVENUE","address_zip":"11217","lng":"-73.9815","lat":"40.6803","num":"83","a":"5","b":"31","c":"12","i":"1","officer":"CHESKY LANDAU","org":"ZEV BAUM 1 LLC"},{"id":"312853","boro":"BROOKLYN","address_num":"223","address_street":"HIMROD STREET","address_zip":"11237","lng":"-73.9207","lat":"40.6996","num":"82","a":"0","b":"45","c":"7","i":"0","officer":"GOLIE CONSTANTIN","org":"CONSTANTIN GOLIE"},{"id":"315712","boro":"BROOKLYN","address_num":"121","address_street":"IRVING AVENUE","address_zip":"11237","lng":"-73.9219","lat":"40.7035","num":"82","a":"7","b":"67","c":"8","i":"0","officer":"DAVID CRESPO","org":""},{"id":"304966","boro":"BROOKLYN","address_num":"142","address_street":"GROVE STREET","address_zip":"11221","lng":"-73.9195","lat":"40.6941","num":"82","a":"13","b":"47","c":"10","i":"0","officer":"GEORGE COLLIER","org":"COLLIER REAL ESTATE HOLDINGS INC"},{"id":"348820","boro":"BROOKLYN","address_num":"602","address_street":"OCEAN VIEW AVENUE","address_zip":"11235","lng":"-73.962","lat":"40.5794","num":"82","a":"0","b":"40","c":"42","i":"0","officer":"AHMET KIYAT","org":""},{"id":"316724","boro":"BROOKLYN","address_num":"1140","address_street":"JEFFERSON AVENUE","address_zip":"11221","lng":"-73.9147","lat":"40.6894","num":"81","a":"8","b":"21","c":"34","i":"0","officer":"DIANNE WHITE","org":""},{"id":"388944","boro":"BROOKLYN","address_num":"836","address_street":"WASHINGTON AVENUE","address_zip":"11238","lng":"-73.9632","lat":"40.673","num":"81","a":"15","b":"57","c":"3","i":"0","officer":"BEN NEHMADI","org":"REPUBLIC WASHINGTON LLC"},{"id":"300827","boro":"BROOKLYN","address_num":"486","address_street":"GLENMORE AVENUE","address_zip":"11207","lng":"-73.8923","lat":"40.6735","num":"80","a":"2","b":"23","c":"6","i":"1","officer":"RAMA GOUNDEN","org":""},{"id":"347157","boro":"BROOKLYN","address_num":"1033","address_street":"OCEAN AVENUE","address_zip":"11226","lng":"-73.9582","lat":"40.6372","num":"80","a":"10","b":"29","c":"22","i":"0","officer":"LOUIS SAINTIUS","org":"1033 OCEAN AVENUE REALTY"},{"id":"146093","boro":"BROOKLYN","address_num":"225","address_street":"23 STREET","address_zip":"11232","lng":"-73.9949","lat":"40.6607","num":"80","a":"6","b":"64","c":"9","i":"0","officer":"BEATO NOVAS","org":"225 23RD STREET REALTY LLC"},{"id":"357439","boro":"BROOKLYN","address_num":"180","address_street":"PULASKI STREET","address_zip":"11206","lng":"-73.9443","lat":"40.6927","num":"80","a":"7","b":"59","c":"14","i":"0","officer":"JOANNA SERRETTE","org":""},{"id":"305967","boro":"BROOKLYN","address_num":"474","address_street":"HALSEY STREET","address_zip":"11233","lng":"-73.9356","lat":"40.6832","num":"79","a":"24","b":"39","c":"16","i":"0","officer":"ABDO ALI","org":""},{"id":"210314","boro":"BROOKLYN","address_num":"1148","address_street":"BLAKE AVENUE","address_zip":"11208","lng":"-73.8753","lat":"40.6705","num":"79","a":"0","b":"0","c":"42","i":"0","officer":"KHEMRAJ SHAMSUNDAR","org":""},{"id":"299486","boro":"BROOKLYN","address_num":"553","address_street":"GATES AVENUE","address_zip":"11221","lng":"-73.9445","lat":"40.6871","num":"79","a":"28","b":"43","c":"8","i":"0","officer":"IGOR BUZHAKER","org":""},{"id":"366846","boro":"BROOKLYN","address_num":"296","address_street":"SCHAEFER STREET","address_zip":"11237","lng":"-73.9046","lat":"40.6926","num":"79","a":"6","b":"30","c":"27","i":"0","officer":"","org":""},{"id":"335489","boro":"BROOKLYN","address_num":"553","address_street":"MEEKER AVENUE","address_zip":"11222","lng":"-73.943","lat":"40.7212","num":"78","a":"21","b":"55","c":"2","i":"0","officer":"SYLVESTER SMOLARCZYK","org":""},{"id":"307992","boro":"BROOKLYN","address_num":"296","address_street":"HARMAN STREET","address_zip":"11237","lng":"-73.9185","lat":"40.6998","num":"78","a":"6","b":"42","c":"16","i":"0","officer":"DAVID LANDAU","org":"296 HARMAN TOWERS LLC"},{"id":"232323","boro":"BROOKLYN","address_num":"679","address_street":"DECATUR STREET","address_zip":"11233","lng":"-73.916","lat":"40.6837","num":"78","a":"11","b":"62","c":"5","i":"0","officer":"JOHN DICARO","org":"WASHINGTON MUTUAL BANK FA"},{"id":"316964","boro":"BROOKLYN","address_num":"1508","address_street":"JEFFERSON AVENUE","address_zip":"11237","lng":"-73.9077","lat":"40.697","num":"78","a":"8","b":"67","c":"3","i":"0","officer":"LEONOR ESTEVEZ","org":""},{"id":"368039","boro":"BROOKLYN","address_num":"845","address_street":"SCHENECTADY AVENUE","address_zip":"11203","lng":"-73.9331","lat":"40.6526","num":"77","a":"8","b":"39","c":"25","i":"0","officer":"RICHARD HORWITZ","org":""},{"id":"357119","boro":"BROOKLYN","address_num":"386","address_street":"PROSPECT PLACE","address_zip":"11238","lng":"-73.9638","lat":"40.6764","num":"77","a":"11","b":"58","c":"8","i":"0","officer":"JAMES DIMITRIADES","org":"M & M PROSPECT HEIGHTS LLC"},{"id":"808087","boro":"BROOKLYN","address_num":"307","address_street":"DEVOE STREET","address_zip":"11211","lng":"-73.9368","lat":"40.714","num":"77","a":"8","b":"16","c":"4","i":"0","officer":"","org":""},{"id":"395849","boro":"BROOKLYN","address_num":"542","address_street":"WILLIAMS AVENUE","address_zip":"11207","lng":"-73.8976","lat":"40.6623","num":"76","a":"2","b":"20","c":"6","i":"0","officer":"","org":"RIVERDALE ASSOCIATES, L.P"},{"id":"312779","boro":"BROOKLYN","address_num":"47","address_street":"HILL STREET","address_zip":"11208","lng":"-73.8715","lat":"40.679","num":"76","a":"17","b":"40","c":"7","i":"0","officer":"SANDRA KANDHAI","org":""},{"id":"371732","boro":"BROOKLYN","address_num":"56","address_street":"SOMERS STREET","address_zip":"11233","lng":"-73.9099","lat":"40.6787","num":"76","a":"4","b":"55","c":"17","i":"0","officer":"PAULA BURNETT","org":""},{"id":"130357","boro":"BROOKLYN","address_num":"367","address_street":"5 AVENUE","address_zip":"11215","lng":"-73.9843","lat":"40.6712","num":"76","a":"9","b":"52","c":"15","i":"0","officer":"RONALD FAIA","org":"5TH AVE HOLDING LLC"},{"id":"127330","boro":"BROOKLYN","address_num":"472","address_street":"2 STREET","address_zip":"11215","lng":"-73.9794","lat":"40.6715","num":"76","a":"27","b":"46","c":"3","i":"0","officer":"DOROTHY NASH","org":""},{"id":"348819","boro":"BROOKLYN","address_num":"524","address_street":"OCEAN VIEW AVENUE","address_zip":"11235","lng":"-73.9625","lat":"40.5795","num":"76","a":"7","b":"59","c":"10","i":"0","officer":"ALAN MALEH","org":"524 OCEANVIEW LLC"},{"id":"316398","boro":"BROOKLYN","address_num":"670","address_street":"JAMAICA AVENUE","address_zip":"11208","lng":"-73.8795","lat":"40.6863","num":"75","a":"6","b":"52","c":"17","i":"0","officer":"JOSHUA VALLEAU","org":""},{"id":"211426","boro":"BROOKLYN","address_num":"454","address_street":"BRADFORD STREET","address_zip":"11207","lng":"-73.8912","lat":"40.6677","num":"75","a":"3","b":"15","c":"37","i":"0","officer":"SURUJWATTIE JAIGOBIN","org":""},{"id":"377843","boro":"BROOKLYN","address_num":"289","address_street":"MOTHER GASTON BOULEVARD","address_zip":"11212","lng":"-73.9072","lat":"40.6723","num":"75","a":"9","b":"52","c":"14","i":"0","officer":"SEAN ASSAAH","org":""},{"id":"230735","boro":"BROOKLYN","address_num":"1211","address_street":"DEAN STREET","address_zip":"11216","lng":"-73.9492","lat":"40.6771","num":"75","a":"11","b":"43","c":"10","i":"0","officer":"SHAMEERAN BLASSE","org":""},{"id":"297453","boro":"BROOKLYN","address_num":"1464","address_street":"FULTON STREET","address_zip":"11216","lng":"-73.9423","lat":"40.6797","num":"75","a":"20","b":"43","c":"11","i":"1","officer":"ELERY MITCHELL","org":""},{"id":"273187","boro":"BROOKLYN","address_num":"107","address_street":"EAST 59 STREET","address_zip":"11203","lng":"-73.9214","lat":"40.6516","num":"74","a":"0","b":"40","c":"6","i":"0","officer":"LAMAR PHILLIP","org":"LAMAR PHILLIP ADM OF THE ESTATE OF WAYNE"},{"id":"129309","boro":"BROOKLYN","address_num":"5717","address_street":"4 AVENUE","address_zip":"11220","lng":"-74.0168","lat":"40.642","num":"74","a":"19","b":"30","c":"10","i":"1","officer":"IVETTE FERNANDEZ","org":""},{"id":"159196","boro":"BROOKLYN","address_num":"1347","address_street":"57 STREET","address_zip":"11219","lng":"-73.9953","lat":"40.6299","num":"74","a":"9","b":"54","c":"11","i":"0","officer":"FRANCINE STOSSER","org":""},{"id":"391243","boro":"BROOKLYN","address_num":"1561","address_street":"WEST 6 STREET","address_zip":"11204","lng":"-73.9796","lat":"40.6091","num":"74","a":"6","b":"27","c":"29","i":"0","officer":"SALVATORE PARLANTI","org":"1561 WEST 6TH ST L.L.C."},{"id":"334896","boro":"BROOKLYN","address_num":"756","address_street":"MAC DONOUGH STREET","address_zip":"11233","lng":"-73.9162","lat":"40.6842","num":"73","a":"17","b":"35","c":"21","i":"0","officer":"DEBORAH CHRISTIAN","org":"SARATOGA COMMON CONDO"},{"id":"334812","boro":"BROOKLYN","address_num":"645","address_street":"MAC DONOUGH STREET","address_zip":"11233","lng":"-73.9205","lat":"40.6838","num":"73","a":"15","b":"20","c":"37","i":"0","officer":"ISAAC AZOULAY","org":"EMA REALTY LLC"},{"id":"380482","boro":"BROOKLYN","address_num":"415","address_street":"SUYDAM STREET","address_zip":"11237","lng":"-73.9202","lat":"40.706","num":"73","a":"18","b":"22","c":"8","i":"0","officer":"EDWIN URGILES","org":""},{"id":"303702","boro":"BROOKLYN","address_num":"1016","address_street":"GREENE AVENUE","address_zip":"11221","lng":"-73.9269","lat":"40.6909","num":"73","a":"0","b":"52","c":"19","i":"0","officer":"ANTONIO CABINESS","org":""},{"id":"205048","boro":"BROOKLYN","address_num":"4729","address_street":"BEACH 47 STREET","address_zip":"11224","lng":"-74.0114","lat":"40.5767","num":"73","a":"22","b":"46","c":"5","i":"0","officer":"FATIMA VISNOVSKY","org":""},{"id":"292876","boro":"BROOKLYN","address_num":"693","address_street":"FLATBUSH AVENUE","address_zip":"11225","lng":"-73.9597","lat":"40.6563","num":"73","a":"12","b":"29","c":"10","i":"0","officer":"ASHRAF PALWALA","org":"ANIS REALTY LLC"},{"id":"337181","boro":"BROOKLYN","address_num":"586","address_street":"MIDWOOD STREET","address_zip":"11203","lng":"-73.9412","lat":"40.6605","num":"72","a":"6","b":"26","c":"4","i":"0","officer":"","org":""},{"id":"308799","boro":"BROOKLYN","address_num":"871","address_street":"HART STREET","address_zip":"11237","lng":"-73.9222","lat":"40.7028","num":"72","a":"11","b":"42","c":"19","i":"0","officer":"RUTH MOROCHO","org":""},{"id":"303776","boro":"BROOKLYN","address_num":"1141","address_street":"GREENE AVENUE","address_zip":"11221","lng":"-73.9232","lat":"40.6946","num":"72","a":"0","b":"10","c":"21","i":"0","officer":"MOSHE REISMAN","org":"1141 GREENE, LLC"},{"id":"299523","boro":"BROOKLYN","address_num":"611","address_street":"GATES AVENUE","address_zip":"11221","lng":"-73.9426","lat":"40.6874","num":"71","a":"15","b":"48","c":"7","i":"0","officer":"LEAH GUTMAN","org":"GATES TOWERS LLC"},{"id":"321565","boro":"BROOKLYN","address_num":"207","address_street":"KOSCIUSZKO STREET","address_zip":"11216","lng":"-73.9467","lat":"40.6914","num":"71","a":"0","b":"4","c":"5","i":"1","officer":"ANNE MARTIN-LLOYD","org":""},{"id":"335712","boro":"BROOKLYN","address_num":"414","address_street":"MELROSE STREET","address_zip":"11237","lng":"-73.9266","lat":"40.7048","num":"71","a":"4","b":"23","c":"5","i":"0","officer":"JOSHUA KU","org":"MERCY HOLDING LLC"},{"id":"268169","boro":"BROOKLYN","address_num":"147","address_street":"EAST 52 STREET","address_zip":"11203","lng":"-73.9287","lat":"40.6575","num":"71","a":"2","b":"8","c":"11","i":"0","officer":"PERCY LAYNE","org":""},{"id":"156211","boro":"BROOKLYN","address_num":"1421","address_street":"53 STREET","address_zip":"11219","lng":"-73.9915","lat":"40.6312","num":"71","a":"10","b":"45","c":"8","i":"0","officer":"BETTY BANDARI","org":"1421 53RD STREET LLC"},{"id":"342870","boro":"BROOKLYN","address_num":"595","address_street":"NEW LOTS AVENUE","address_zip":"11207","lng":"-73.8871","lat":"40.6647","num":"70","a":"10","b":"43","c":"17","i":"0","officer":"JORGE PAGAN","org":""},{"id":"324097","boro":"BROOKLYN","address_num":"20","address_street":"LENOX ROAD","address_zip":"11226","lng":"-73.9587","lat":"40.6533","num":"70","a":"4","b":"17","c":"22","i":"0","officer":"MARC JEAN","org":"HAITIAN TABERNACLE OF BROOKLYN"},{"id":"226210","boro":"BROOKLYN","address_num":"27","address_street":"CORNELIA STREET","address_zip":"11221","lng":"-73.9178","lat":"40.6882","num":"70","a":"2","b":"28","c":"38","i":"0","officer":"KINIA PRIMO","org":""},{"id":"366355","boro":"BROOKLYN","address_num":"339","address_street":"SARATOGA AVENUE","address_zip":"11233","lng":"-73.9164","lat":"40.6741","num":"70","a":"4","b":"28","c":"23","i":"0","officer":"OSWALD JEFFERS","org":""},{"id":"221782","boro":"BROOKLYN","address_num":"790","address_street":"CLASSON AVENUE","address_zip":"11238","lng":"-73.9609","lat":"40.6734","num":"70","a":"15","b":"39","c":"0","i":"0","officer":"SOLOMON SCHWIMMER","org":"CLASSON GROUP LLC"},{"id":"148105","boro":"BROOKLYN","address_num":"424","address_street":"39 STREET","address_zip":"11232","lng":"-74.0056","lat":"40.652","num":"70","a":"0","b":"67","c":"1","i":"0","officer":"ASPASIA SAMAKOVLIS","org":""},{"id":"229996","boro":"BROOKLYN","address_num":"1416","address_street":"DE KALB AVENUE","address_zip":"11237","lng":"-73.9232","lat":"40.6999","num":"70","a":"12","b":"40","c":"12","i":"0","officer":"JOHN SIRAGUSA","org":""},{"id":"295804","boro":"BROOKLYN","address_num":"437","address_street":"FRANKLIN AVENUE","address_zip":"11238","lng":"-73.9559","lat":"40.6839","num":"70","a":"0","b":"8","c":"1","i":"0","officer":"MARC ROSS","org":""},{"id":"321755","boro":"BROOKLYN","address_num":"530","address_street":"KOSCIUSZKO STREET","address_zip":"11221","lng":"-73.9327","lat":"40.6925","num":"70","a":"17","b":"16","c":"31","i":"0","officer":"IDA BOAKYE","org":""},{"id":"141465","boro":"BROOKLYN","address_num":"185","address_street":"16 STREET","address_zip":"11215","lng":"-73.9904","lat":"40.6655","num":"69","a":"0","b":"55","c":"11","i":"0","officer":"ANNA AULISA","org":"185 16 STREET CORP"},{"id":"340663","boro":"BROOKLYN","address_num":"1473","address_street":"MYRTLE AVENUE","address_zip":"11237","lng":"-73.9169","lat":"40.6992","num":"69","a":"7","b":"33","c":"9","i":"0","officer":"SUI CHING LIU","org":""},{"id":"340350","boro":"BROOKLYN","address_num":"55","address_street":"MORGAN AVENUE","address_zip":"11237","lng":"-73.932","lat":"40.7058","num":"69","a":"15","b":"44","c":"10","i":"0","officer":"SIMON FRUCHTER","org":"55 PLAZA LLC"},{"id":"331293","boro":"BROOKLYN","address_num":"904","address_street":"MADISON STREET","address_zip":"11221","lng":"-73.9214","lat":"40.6878","num":"68","a":"9","b":"41","c":"7","i":"0","officer":"RUTH FERGUS","org":"CORP AFRO KEYS"},{"id":"379343","boro":"BROOKLYN","address_num":"406","address_street":"MARCUS GARVEY BOULEVARD","address_zip":"11216","lng":"-73.9384","lat":"40.6829","num":"68","a":"0","b":"29","c":"5","i":"0","officer":"LLOYD WILLIAMS","org":""},{"id":"150443","boro":"BROOKLYN","address_num":"1250","address_street":"44 STREET","address_zip":"11219","lng":"-73.9903","lat":"40.6382","num":"68","a":"22","b":"40","c":"6","i":"0","officer":"FAWEL SCHWARTZ","org":""},{"id":"316283","boro":"BROOKLYN","address_num":"144","address_street":"JAMAICA AVENUE","address_zip":"11207","lng":"-73.895","lat":"40.6791","num":"68","a":"3","b":"4","c":"29","i":"0","officer":"LAURA MCCARTHY","org":""},{"id":"210308","boro":"BROOKLYN","address_num":"1140","address_street":"BLAKE AVENUE","address_zip":"11208","lng":"-73.8755","lat":"40.6704","num":"68","a":"17","b":"35","c":"16","i":"0","officer":"WINSTON WOODCOCK","org":""},{"id":"378809","boro":"BROOKLYN","address_num":"157","address_street":"STUYVESANT AVENUE","address_zip":"11221","lng":"-73.9332","lat":"40.6898","num":"67","a":"6","b":"21","c":"3","i":"0","officer":"JOE MANDEL","org":"157 STUYVESANT, LLC"},{"id":"378272","boro":"BROOKLYN","address_num":"2323","address_street":"STRAUSS STREET","address_zip":"11212","lng":"-73.913","lat":"40.6569","num":"67","a":"10","b":"24","c":"27","i":"0","officer":"ANDREW DANIEL","org":"AFFORDABLE HOMES SALES"},{"id":"397898","boro":"BROOKLYN","address_num":"387","address_street":"WOODBINE STREET","address_zip":"11237","lng":"-73.9119","lat":"40.6979","num":"67","a":"6","b":"36","c":"22","i":"0","officer":"MEI CHAU","org":"BMP GROUP CORP"},{"id":"364577","boro":"BROOKLYN","address_num":"1035","address_street":"RUTLAND ROAD","address_zip":"11212","lng":"-73.9255","lat":"40.6635","num":"67","a":"11","b":"35","c":"12","i":"0","officer":"DENYSE ROBERTS","org":""},{"id":"151879","boro":"BROOKLYN","address_num":"245","address_street":"46 STREET","address_zip":"11220","lng":"-74.0133","lat":"40.6508","num":"67","a":"5","b":"39","c":"9","i":"0","officer":"CHESKY LANDAU","org":"YOSEF DAAS LLC"},{"id":"343859","boro":"BROOKLYN","address_num":"254","address_street":"NEW YORK AVENUE","address_zip":"11216","lng":"-73.9479","lat":"40.6717","num":"67","a":"1","b":"11","c":"13","i":"0","officer":"DOREEN ELLIS","org":""},{"id":"358499","boro":"BROOKLYN","address_num":"829","address_street":"PUTNAM AVENUE","address_zip":"11221","lng":"-73.9283","lat":"40.6867","num":"67","a":"6","b":"25","c":"19","i":"0","officer":"MOHAMED IBRAHEM","org":""},{"id":"346886","boro":"BROOKLYN","address_num":"621","address_street":"NOSTRAND AVENUE","address_zip":"11216","lng":"-73.9497","lat":"40.6757","num":"67","a":"9","b":"49","c":"7","i":"0","officer":"CLARENCE BROWN","org":""},{"id":"306961","boro":"BROOKLYN","address_num":"331","address_street":"HANCOCK STREET","address_zip":"11216","lng":"-73.9427","lat":"40.6834","num":"66","a":"18","b":"36","c":"12","i":"0","officer":"SANDRA GLASGOW","org":""},{"id":"176225","boro":"BROOKLYN","address_num":"575","address_street":"80 STREET","address_zip":"11209","lng":"-74.022","lat":"40.6246","num":"66","a":"10","b":"18","c":"11","i":"0","officer":"KOSTA LASKARATOS","org":"575 80 REALTY LLC"},{"id":"397785","boro":"BROOKLYN","address_num":"14","address_street":"WOODBINE STREET","address_zip":"11221","lng":"-73.9199","lat":"40.6889","num":"66","a":"12","b":"29","c":"25","i":"0","officer":"MOHAMMAD ISLAM","org":""},{"id":"359485","boro":"BROOKLYN","address_num":"599","address_street":"QUINCY STREET","address_zip":"11221","lng":"-73.9352","lat":"40.689","num":"66","a":"12","b":"23","c":"19","i":"0","officer":"KATRIEL YANKOWITZ","org":"599 QUINCY LLC"},{"id":"376348","boro":"BROOKLYN","address_num":"1292","address_street":"STERLING PLACE","address_zip":"11213","lng":"-73.9358","lat":"40.6715","num":"66","a":"22","b":"19","c":"3","i":"0","officer":"EDDY JANVIER","org":""},{"id":"383395","boro":"BROOKLYN","address_num":"1654","address_street":"UNION STREET","address_zip":"11213","lng":"-73.9338","lat":"40.6677","num":"66","a":"3","b":"27","c":"26","i":"0","officer":"JOSEPH ZWEIBEL","org":"CY EMPIRE CORP"},{"id":"348817","boro":"BROOKLYN","address_num":"522","address_street":"OCEAN VIEW AVENUE","address_zip":"11235","lng":"-73.9625","lat":"40.5795","num":"66","a":"16","b":"37","c":"13","i":"0","officer":"ALAN MALEH","org":"522 OCEANVIEW LLC"},{"id":"215664","boro":"BROOKLYN","address_num":"1114","address_street":"BUSHWICK AVENUE","address_zip":"11221","lng":"-73.9189","lat":"40.6897","num":"66","a":"10","b":"44","c":"12","i":"0","officer":"LAUREN CRUMP","org":""},{"id":"346867","boro":"BROOKLYN","address_num":"573","address_street":"NOSTRAND AVENUE","address_zip":"11216","lng":"-73.9495","lat":"40.6778","num":"65","a":"4","b":"7","c":"16","i":"0","officer":"ABE BETESH","org":"1295.LLC"},{"id":"316911","boro":"BROOKLYN","address_num":"1414","address_street":"JEFFERSON AVENUE","address_zip":"11237","lng":"-73.909","lat":"40.6953","num":"65","a":"3","b":"38","c":"24","i":"0","officer":"JAMES DICKERSON","org":""},{"id":"319025","boro":"BROOKLYN","address_num":"149","address_street":"KENILWORTH PLACE","address_zip":"11210","lng":"-73.9484","lat":"40.6326","num":"65","a":"7","b":"20","c":"5","i":"0","officer":"JOE FALACK","org":"HILLEL REALTY CORP"},{"id":"306121","boro":"BROOKLYN","address_num":"641","address_street":"HALSEY STREET","address_zip":"11233","lng":"-73.9267","lat":"40.6847","num":"65","a":"11","b":"36","c":"18","i":"0","officer":"WANDA HARPER","org":""},{"id":"398190","boro":"BROOKLYN","address_num":"131","address_street":"WYCKOFF AVENUE","address_zip":"11237","lng":"-73.9186","lat":"40.7042","num":"65","a":"2","b":"27","c":"14","i":"0","officer":"JACK AINI","org":"133 WYCKHOFF HOLDING LLC"},{"id":"287547","boro":"BROOKLYN","address_num":"1181","address_street":"EASTERN PARKWAY","address_zip":"11213","lng":"-73.9292","lat":"40.6692","num":"65","a":"11","b":"35","c":"19","i":"0","officer":"JOSEPH EMILE","org":"FRONTLINE PROPERTY MGMT, LLC"},{"id":"185921","boro":"BROOKLYN","address_num":"2152","address_street":"ATLANTIC AVENUE","address_zip":"11233","lng":"-73.9154","lat":"40.6763","num":"64","a":"15","b":"26","c":"6","i":"0","officer":"DAVID COHAN","org":""},{"id":"330564","boro":"BROOKLYN","address_num":"1091","address_street":"MADISON STREET","address_zip":"11221","lng":"-73.9167","lat":"40.6917","num":"64","a":"8","b":"43","c":"13","i":"0","officer":"ISAAC ROSENBERG","org":"ACTIVE 790 LLC"},{"id":"363817","boro":"BROOKLYN","address_num":"423","address_street":"ROGERS AVENUE","address_zip":"11225","lng":"-73.9534","lat":"40.6624","num":"64","a":"8","b":"29","c":"11","i":"0","officer":"JACK ZIMMER","org":"ROGERS PALACE LLC"},{"id":"357392","boro":"BROOKLYN","address_num":"117","address_street":"PULASKI STREET","address_zip":"11206","lng":"-73.9467","lat":"40.6929","num":"64","a":"14","b":"40","c":"10","i":"0","officer":"ZIV BUKOBZA","org":"117 PULASKI LLC"},{"id":"299396","boro":"BROOKLYN","address_num":"410","address_street":"GATES AVENUE","address_zip":"11216","lng":"-73.9498","lat":"40.6861","num":"63","a":"11","b":"43","c":"9","i":"0","officer":"ABE WALDMAN","org":"410 GATES LLC"},{"id":"324081","boro":"BROOKLYN","address_num":"16","address_street":"LENOX ROAD","address_zip":"11226","lng":"-73.9588","lat":"40.6533","num":"63","a":"8","b":"46","c":"9","i":"0","officer":"PEARL JOHNSON-ICYLINE","org":""},{"id":"231733","boro":"BROOKLYN","address_num":"1283","address_street":"DECATUR STREET","address_zip":"11207","lng":"-73.9059","lat":"40.6908","num":"63","a":"5","b":"50","c":"7","i":"0","officer":"MOSES BRULL","org":"1283 DECATUR STREET LLC"},{"id":"307276","boro":"BROOKLYN","address_num":"64","address_street":"HANCOCK STREET","address_zip":"11216","lng":"-73.953","lat":"40.6819","num":"62","a":"10","b":"38","c":"14","i":"0","officer":"LLOYD BARNES","org":"GOOD MAZEL REALTY CORP"},{"id":"339107","boro":"BROOKLYN","address_num":"57","address_street":"MONROE STREET","address_zip":"11238","lng":"-73.9571","lat":"40.6849","num":"62","a":"10","b":"40","c":"7","i":"1","officer":"MOISHE KATZ","org":""},{"id":"304629","boro":"BROOKLYN","address_num":"909","address_street":"GREENE AVENUE","address_zip":"11221","lng":"-73.9312","lat":"40.6909","num":"62","a":"0","b":"8","c":"5","i":"0","officer":"LOUISE GERALDS","org":""},{"id":"395876","boro":"BROOKLYN","address_num":"582","address_street":"WILLIAMS AVENUE","address_zip":"11207","lng":"-73.8974","lat":"40.6615","num":"62","a":"6","b":"38","c":"9","i":"0","officer":"PHILIP DAILEY","org":""},{"id":"311436","boro":"BROOKLYN","address_num":"282","address_street":"HERKIMER STREET","address_zip":"11216","lng":"-73.9439","lat":"40.6791","num":"62","a":"0","b":"42","c":"5","i":"0","officer":"AUBREY PHILLIBERT","org":""},{"id":"231260","boro":"BROOKLYN","address_num":"278","address_street":"DEAN STREET","address_zip":"11217","lng":"-73.9827","lat":"40.6842","num":"62","a":"10","b":"20","c":"14","i":"0","officer":"DAVID SHORENSTEIN","org":"SILVERSHORE PROPERTIES 35,LLC"},{"id":"153708","boro":"BROOKLYN","address_num":"418","address_street":"49 STREET","address_zip":"11220","lng":"-74.0116","lat":"40.6465","num":"62","a":"18","b":"26","c":"9","i":"0","officer":"JACQUELINE ARROYO","org":"DELERIMAR REALTY CORP"},{"id":"296218","boro":"BROOKLYN","address_num":"113","address_street":"FREEMAN STREET","address_zip":"11222","lng":"-73.9572","lat":"40.7344","num":"61","a":"3","b":"18","c":"6","i":"0","officer":"SAMSON MOLINSKY","org":""},{"id":"387086","boro":"BROOKLYN","address_num":"240A","address_street":"VERNON AVENUE","address_zip":"11206","lng":"-73.942","lat":"40.6952","num":"61","a":"8","b":"42","c":"11","i":"0","officer":"SAM BRETLER","org":"JACOB JILL INC"},{"id":"129120","boro":"BROOKLYN","address_num":"4805","address_street":"4 AVENUE","address_zip":"11220","lng":"-74.0113","lat":"40.6473","num":"61","a":"13","b":"27","c":"7","i":"0","officer":"JACQUELINE ARROYO","org":"DELERIMAR REALTY CORP"},{"id":"292833","boro":"BROOKLYN","address_num":"607","address_street":"FLATBUSH AVENUE","address_zip":"11225","lng":"-73.9602","lat":"40.6586","num":"61","a":"3","b":"19","c":"16","i":"0","officer":"EGAL SHASHO","org":"611 FLATBUSH AVE REALTY CORP"},{"id":"304287","boro":"BROOKLYN","address_num":"571","address_street":"GREENE AVENUE","address_zip":"11216","lng":"-73.9474","lat":"40.6886","num":"61","a":"0","b":"0","c":"22","i":"0","officer":"ELIZABETH EMONO","org":""},{"id":"349624","boro":"BROOKLYN","address_num":"1447","address_street":"PACIFIC STREET","address_zip":"11216","lng":"-73.9435","lat":"40.6776","num":"61","a":"12","b":"33","c":"8","i":"0","officer":"CHARLENE GAYLE","org":"124 NEW YORK REALTY"},{"id":"325094","boro":"BROOKLYN","address_num":"462","address_street":"LEXINGTON AVENUE","address_zip":"11221","lng":"-73.9424","lat":"40.6884","num":"61","a":"6","b":"38","c":"7","i":"0","officer":"HENRY WALTER","org":"THE NL GROUP LLC"},{"id":"313670","boro":"BROOKLYN","address_num":"128","address_street":"HOPKINSON AVENUE","address_zip":"11233","lng":"-73.9133","lat":"40.6704","num":"60","a":"4","b":"16","c":"3","i":"0","officer":"DELIA JOHNSON","org":""},{"id":"313194","boro":"BROOKLYN","address_num":"708","address_street":"HINSDALE STREET","address_zip":"11207","lng":"-73.8972","lat":"40.6572","num":"60","a":"7","b":"39","c":"14","i":"0","officer":"CAROL SALMON","org":""},{"id":"335825","boro":"BROOKLYN","address_num":"333","address_street":"MENAHAN STREET","address_zip":"11237","lng":"-73.9148","lat":"40.7007","num":"60","a":"4","b":"31","c":"21","i":"0","officer":"THELMA SOSA","org":""},{"id":"386993","boro":"BROOKLYN","address_num":"130","address_street":"VERNON AVENUE","address_zip":"11206","lng":"-73.9467","lat":"40.6947","num":"60","a":"11","b":"18","c":"8","i":"0","officer":"TADEO SILVA","org":"SILVA PROPERTIES LLC"},{"id":"809849","boro":"BROOKLYN","address_num":"2837","address_street":"WEST 19 STREET","address_zip":"11224","lng":"-73.9857","lat":"40.5777","num":"59","a":"10","b":"44","c":"3","i":"2","officer":"ARON FROMOWITZ","org":""},{"id":"357412","boro":"BROOKLYN","address_num":"152","address_street":"PULASKI STREET","address_zip":"11206","lng":"-73.9453","lat":"40.6926","num":"59","a":"8","b":"24","c":"6","i":"0","officer":"LORENZO DISTANT","org":"152 PULASKI LLC"},{"id":"342863","boro":"BROOKLYN","address_num":"563","address_street":"NEW LOTS AVENUE","address_zip":"11207","lng":"-73.8879","lat":"40.6643","num":"59","a":"0","b":"8","c":"23","i":"0","officer":"IRINI LASKARATOS","org":""},{"id":"335853","boro":"BROOKLYN","address_num":"383","address_street":"MENAHAN STREET","address_zip":"11237","lng":"-73.9135","lat":"40.702","num":"59","a":"16","b":"16","c":"27","i":"0","officer":"VASSYL DANYLIOUK","org":""},{"id":"308013","boro":"BROOKLYN","address_num":"321","address_street":"HARMAN STREET","address_zip":"11237","lng":"-73.9184","lat":"40.7008","num":"59","a":"3","b":"12","c":"19","i":"0","officer":"LVZER LOWY","org":"321 HARMAN REALTY LLC"},{"id":"333077","boro":"BROOKLYN","address_num":"270","address_street":"MARION STREET","address_zip":"11233","lng":"-73.9189","lat":"40.6808","num":"58","a":"23","b":"33","c":"2","i":"0","officer":"ESTELLE JOHNSON NORRIS","org":""},{"id":"313202","boro":"BROOKLYN","address_num":"719","address_street":"HINSDALE STREET","address_zip":"11207","lng":"-73.8966","lat":"40.6571","num":"58","a":"11","b":"38","c":"9","i":"0","officer":"BENJAMIN ZAPATA","org":""},{"id":"362534","boro":"BROOKLYN","address_num":"190","address_street":"ROCKAWAY AVENUE","address_zip":"11233","lng":"-73.9112","lat":"40.6767","num":"58","a":"5","b":"33","c":"13","i":"0","officer":"NELUC MATHIEU","org":""},{"id":"383756","boro":"BROOKLYN","address_num":"578","address_street":"UNION STREET","address_zip":"11215","lng":"-73.9849","lat":"40.6778","num":"58","a":"14","b":"32","c":"12","i":"0","officer":"LIPA LESKOWITS","org":"578 UNION LLC"},{"id":"335805","boro":"BROOKLYN","address_num":"309","address_street":"MENAHAN STREET","address_zip":"11237","lng":"-73.9155","lat":"40.7001","num":"58","a":"8","b":"16","c":"23","i":"0","officer":"ABDUL AWAN","org":""},{"id":"262439","boro":"BROOKLYN","address_num":"160","address_street":"EAST 39 STREET","address_zip":"11203","lng":"-73.9415","lat":"40.6536","num":"57","a":"4","b":"40","c":"13","i":"0","officer":"TRUMON JACKSON","org":""},{"id":"309555","boro":"BROOKLYN","address_num":"508","address_street":"HEGEMAN AVENUE","address_zip":"11207","lng":"-73.8926","lat":"40.6593","num":"57","a":"7","b":"33","c":"4","i":"0","officer":"WALLACE MCINTOSH","org":"MAC SIX REALTY CORP"},{"id":"292725","boro":"BROOKLYN","address_num":"277","address_street":"FLATBUSH AVENUE","address_zip":"11217","lng":"-73.9737","lat":"40.6795","num":"57","a":"18","b":"36","c":"3","i":"0","officer":"GERARD PROPHETE","org":""},{"id":"311691","boro":"BROOKLYN","address_num":"879","address_street":"HERKIMER STREET","address_zip":"11233","lng":"-73.9242","lat":"40.6784","num":"57","a":"4","b":"30","c":"23","i":"0","officer":"BERTNELL CARTY","org":""},{"id":"219150","boro":"BROOKLYN","address_num":"559","address_street":"CHAUNCEY STREET","address_zip":"11233","lng":"-73.9124","lat":"40.6826","num":"57","a":"15","b":"22","c":"1","i":"0","officer":"PATRICIA MORRIS","org":""},{"id":"372363","boro":"BROOKLYN","address_num":"63","address_street":"SOUTH 4 STREET","address_zip":"11211","lng":"-73.9655","lat":"40.713","num":"56","a":"9","b":"40","c":"7","i":"0","officer":"SHAYE BRAUNER","org":""},